     3.04           OBSERVATION DATA    M                   RINEX VERSION / TYPE
sbf2rin-15.6.1                          20240331 000034 UTC PGM / RUN BY / DATE
KIRU00SWE                                                   MARKER NAME
10403M002                                                   MARKER NUMBER
AUTOMATIC           ESA/ESOC                                OBSERVER / AGENCY
4701570             SEPT POLARX5TR      5.5.0               REC # / TYPE / VERS
5651                SEPCHOKE_B3E6   SPKE                    ANT # / TYPE
  2251420.9320   862817.1400  5885476.6040                  APPROX POSITION XYZ
        0.0620        0.0000        0.0000                  ANTENNA: DELTA H/E/N
G   22 C1C L1C D1C S1C C1W S1W C2W L2W D2W S2W C2L L2L D2L  SYS / # / OBS TYPES
       S2L C5Q L5Q D5Q S5Q C1L L1L D1L S1L                  SYS / # / OBS TYPES
E   20 C1C L1C D1C S1C C6C L6C D6C S6C C5Q L5Q D5Q S5Q C7Q  SYS / # / OBS TYPES
       L7Q D7Q S7Q C8Q L8Q D8Q S8Q                          SYS / # / OBS TYPES
S    8 C1C L1C D1C S1C C5I L5I D5I S5I                      SYS / # / OBS TYPES
R   20 C1C L1C D1C S1C C1P L1P D1P S1P C2P L2P D2P S2P C2C  SYS / # / OBS TYPES
       L2C D2C S2C C3Q L3Q D3Q S3Q                          SYS / # / OBS TYPES
C   24 C1P L1P D1P S1P C5P L5P D5P S5P C2I L2I D2I S2I C7I  SYS / # / OBS TYPES
       L7I D7I S7I C6I L6I D6I S6I C7D L7D D7D S7D          SYS / # / OBS TYPES
J   20 C1C L1C D1C S1C C2L L2L D2L S2L C5Q L5Q D5Q S5Q C1L  SYS / # / OBS TYPES
       L1L D1L S1L C1Z L1Z D1Z S1Z                          SYS / # / OBS TYPES
I    4 C5A L5A D5A S5A                                      SYS / # / OBS TYPES
SEPTENTRIO RECEIVERS OUTPUT ALIGNED CARRIER PHASES.         COMMENT
NO FURTHER PHASE SHIFT APPLIED IN THE RINEX ENCODER.        COMMENT
G L1C                                                       SYS / PHASE SHIFT
G L2W                                                       SYS / PHASE SHIFT
G L2L  0.00000                                              SYS / PHASE SHIFT
G L5Q  0.00000                                              SYS / PHASE SHIFT
G L1L  0.00000                                              SYS / PHASE SHIFT
E L1C  0.00000                                              SYS / PHASE SHIFT
E L6C  0.00000                                              SYS / PHASE SHIFT
E L5Q  0.00000                                              SYS / PHASE SHIFT
E L7Q  0.00000                                              SYS / PHASE SHIFT
E L8Q  0.00000                                              SYS / PHASE SHIFT
S L1C                                                       SYS / PHASE SHIFT
S L5I                                                       SYS / PHASE SHIFT
R L1C                                                       SYS / PHASE SHIFT
R L1P  0.00000                                              SYS / PHASE SHIFT
R L2P  0.00000                                              SYS / PHASE SHIFT
R L2C                                                       SYS / PHASE SHIFT
R L3Q  0.00000                                              SYS / PHASE SHIFT
C L1P  0.00000                                              SYS / PHASE SHIFT
C L5P  0.00000                                              SYS / PHASE SHIFT
C L2I                                                       SYS / PHASE SHIFT
C L7I                                                       SYS / PHASE SHIFT
C L6I                                                       SYS / PHASE SHIFT
C L7D                                                       SYS / PHASE SHIFT
J L1C                                                       SYS / PHASE SHIFT
J L2L  0.00000                                              SYS / PHASE SHIFT
J L5Q  0.00000                                              SYS / PHASE SHIFT
J L1L  0.00000                                              SYS / PHASE SHIFT
J L1Z  0.00000                                              SYS / PHASE SHIFT
I L5A                                                       SYS / PHASE SHIFT
    30.000                                                  INTERVAL
  2024     3    30     0     0    0.0000000     GPS         TIME OF FIRST OBS
  2024     3    30    23    59   30.0000000     GPS         TIME OF LAST OBS
   136                                                      # OF SATELLITES
 C1C    0.000 C1P    0.000 C2C    0.000 C2P    0.000        GLONASS COD/PHS/BIS
DBHZ                                                        SIGNAL STRENGTH UNIT
    18                                                      LEAP SECONDS
 26 R01  1 R02 -4 R03  5 R04  6 R05  1 R06 -4 R07  5 R08  6 GLONASS SLOT / FRQ #
    R09 -2 R10 -7 R11  0 R12 -1 R13 -2 R14 -7 R15  0 R16 -1 GLONASS SLOT / FRQ #
    R17  4 R18 -3 R19  3 R20  2 R21  4 R22 -3 R23  3 R24  2 GLONASS SLOT / FRQ #
    R25 -5 R26 -6                                           GLONASS SLOT / FRQ #
                                                            END OF HEADER
> 2024 03 30 00 00  0.0000000  0 55
C05                                                                                                                                                                                                  40964046.904 5 164945368.62205       -46.154 5        32.250    40964050.536 4                       -49.089 4        29.750
C06                                                                                                                                  38587284.123 6 200934199.81506     -1132.428 6        40.750    38587281.665 7 155375098.08707      -875.648 7        45.000    38587282.041 7 163275493.35707      -920.082 7        43.250
C09                                                                                                                                  38235256.526 7 199101080.60907      -743.375 7        44.000    38235255.835 8 153957632.39408      -574.822 8        48.250    38235254.825 7 161785962.08107      -604.065 7        44.750
C12                                                                                                                                                                                                  26873860.703 5 108209902.26405      2272.166 5        32.750
C16                                                                                                                                  39580485.273 6 206106006.57306     -1226.204 6        40.000    39580489.023 6 159374269.18406      -948.163 6        41.250    39580488.022 6 167478033.89006      -996.276 6        39.250
C19  26030988.010 6 136793788.16606      3362.924 6        36.250    26030989.920 6 102151211.61006      2511.323 6        39.750    26030986.007 6 135550188.14006      3332.479 6        38.500                                                                    26030986.877 6 110145637.06806      2707.820 6        41.500    26030988.942 6 104816023.89406      2577.049 6        40.000
C20  22403850.174 8 117733087.57108      1455.794 8        50.500    22403848.506 8  87917616.12908      1087.128 8        52.750    22403847.741 8 116662788.93408      1442.590 8        52.750                                                                    22403846.407 8  94798105.76108      1172.234 8        52.250    22403847.412 8  90211110.01908      1115.490 8        52.750
C23  23116563.501 8 121478414.69908      1041.093 8        48.750    23116558.533 8  90714401.05908       777.421 8        51.750    23116561.019 8 120374051.58008      1031.620 8        50.500                                                                    23116556.675 8  97813766.92008       838.276 8        51.750    23116557.037 8  93080846.60708       797.710 8        51.500
C25  24040816.001 7 126335368.73907     -2109.457 7        44.250    24040815.908 7  94341357.23507     -1575.270 7        46.500    24040813.377 7 125186843.25807     -2090.239 7        46.000                                                                    24040816.210 7 101724598.74507     -1698.510 7        47.000    24040814.872 7  96802431.80807     -1616.349 7        47.000
C29  26095717.023 4 137133979.92704     -3131.938 4        26.000    26095720.717 5 102405282.62005     -2339.118 5        31.500    26095715.995 5 135887292.39705     -3103.526 5        30.500                                                                    26095718.363 5 110419595.69505     -2521.858 5        31.000    26095716.569 5 105076701.37805     -2400.224 5        31.000
C32  22815404.466 8 119895860.06508     -2063.191 8        50.000    22815406.514 8  89532704.25108     -1540.724 8        52.000    22815401.251 8 118805903.24908     -2044.462 8        51.250                                                                    22815405.359 8  96539594.02508     -1661.242 8        52.000    22815404.969 8  91868329.62308     -1580.884 8        51.750
C35  24530863.510 7 128910622.60907      -615.449 7        42.750    24530864.637 7  96264483.97607      -459.437 7        43.750    24530861.136 7 127738714.06807      -609.741 7        45.000                                                                    24530864.210 7 103798194.91107      -495.446 7        45.750    24530863.695 7  98775707.27507      -471.525 7        44.750
C37  25434663.560 6 133660076.94406      3418.368 6        40.750    25434668.116 7  99811133.23607      2552.772 7        43.000    25434659.263 6 132444988.16306      3387.464 6        40.500                                                                    25434667.551 7 107622437.26107      2752.615 7        43.750    25434667.524 7 102414897.60707      2619.356 7        44.750
C39  40277588.805 6 211660225.85406     -1435.937 6        37.500    40277587.540 6 158057978.14506     -1072.355 6        40.000    40277585.197 6 209736016.26606     -1422.827 6        38.750                                                                    40277586.420 6 170427718.82706     -1156.034 6        40.000    40277586.943 6 162181221.35706     -1100.169 6        41.000
C41                                                                  27103847.205 5 106361459.97405     -2630.703 5        33.000                                                                                                                                    27103844.086 5 114685344.12705     -2836.710 5        34.750    27103846.599 5 109135961.60105     -2699.423 5        35.500
C44  25502052.656 6 134014217.69806      1931.039 6        37.250    25502057.074 6 100075591.75306      1442.065 6        38.750    25502049.410 6 132795918.48306      1913.570 6        37.500                                                                    25502055.176 6 107907575.12806      1554.774 6        39.250    25502054.536 6 102686243.75106      1479.653 6        38.500
C48  23598413.166 7 124010551.05807      2613.927 7        44.250    23598429.823 8  92605372.19808      1951.987 8        48.250    23598410.402 7 122883167.49507      2590.111 7        46.750                                                                    23598411.626 8  99852666.91908      2104.778 8        48.500    23598429.382 8  95021157.35008      2002.862 8        48.000
C57                                                                                                                                  23293502.529 7 121295408.49007       653.993 7        42.250                                                                    23293629.387 7  98563008.33407       531.407 7        43.750
E02  25442369.275 7 133700573.36007       727.643 7        45.000    25442369.548 8 108523200.92208       590.660 8        48.750    25442369.708 8  99841354.96408       543.419 8        48.250    25442367.967 8 102445895.47408       557.589 8        49.000    25442368.437 8 101143627.79308       550.511 8        51.500
E07  23516704.123 8 123581188.72308      -358.617 8        50.250    23516703.332 9 100309456.58109      -291.108 9        54.000    23516705.751 8  92284723.43108      -267.814 8        53.000    23516704.152 9  94692135.15609      -274.808 9        54.000    23516704.655 9  93488435.36909      -271.317 9        56.500
E08  26242666.985 7 137906234.89507     -2730.272 7        42.750    26242665.671 7 111936913.09207     -2216.122 7        45.750    26242667.101 7 102981990.25807     -2038.853 7        45.000    26242665.243 7 105668461.86907     -2092.050 7        46.000    26242665.902 8 104325231.63608     -2065.450 8        48.500
E10  27952445.334 5 146891105.00905      2786.446 5        34.250    27952449.251 6 119229822.52106      2262.028 6        41.000    27952450.793 6 109691433.21006      2081.042 6        40.250    27952449.561 6 112552942.77506      2135.362 6        41.750    27952449.607 7 111122197.56507      2108.204 7        44.000
E12  26547205.462 6 139506580.03506      1829.383 6        38.250    26547202.954 7 113235869.05907      1485.012 7        43.000    26547204.653 7 104177015.30507      1366.136 7        43.000    26547202.750 7 106894666.70507      1401.826 7        42.750    26547203.650 7 105535840.57907      1383.984 7        46.000
E18  22556252.801 6 118533922.20906      2563.266 6        37.750    22556251.880 6  96212608.38706      2080.424 6        38.250    22556256.637 6  88515618.30906      1913.989 6        40.750    22556253.916 6  90824710.00106      1964.060 6        41.000    22556254.879 7  89670173.23007      1939.011 7        44.000
E25  26926421.597 6 141499289.35906     -1989.427 6        39.250    26926421.816 7 114853322.82307     -1614.711 7        42.000    26926425.518 6 105665071.35706     -1485.518 6        41.500    26926423.745 7 108421525.92507     -1524.332 7        42.750    26926424.614 7 107043302.21607     -1504.945 7        45.250
E26  26976375.662 6 141761879.32106     -3224.752 6        38.000    26976376.937 7 115066484.40607     -2617.425 7        43.250    26976377.361 7 105861186.18307     -2408.088 7        42.750    26976375.602 7 108622766.29107     -2470.937 7        44.000    26976375.916 7 107241972.81007     -2439.507 7        46.500
E30  27065568.693 6 142230544.67906      3008.645 6        39.000    27065568.291 7 115446880.07707      2442.019 7        42.250    27065570.567 6 106211138.66206      2246.562 6        41.250    27065568.543 7 108981857.58807      2305.284 7        42.250    27065569.372 7 107596504.70007      2275.924 7        44.750
E33  25083258.458 7 131813483.47307     -1275.005 7        46.000    25083258.168 8 106991514.15408     -1034.869 8        49.750    25083258.347 8  98432210.88508      -952.073 8        49.250    25083256.288 8 100999995.85708      -976.917 8        49.750    25083256.982 8  99716107.44608      -964.494 8        52.500
G04  22635606.046 7 118950997.63107     -3196.725 7        43.500    22635605.872 5        32.000    22635605.823 5  92689120.01905     -2490.956 5        32.000    22635605.934 7  92689112.02207     -2491.037 7        44.250    22635608.254 7  88827098.91907     -2387.198 7        47.750    22635605.853 7 118951010.63807     -3196.834 7        44.250
G05  24059132.998 6 126431631.63606      3652.482 6        39.500    24059132.802 5        33.000    24059131.898 5  98518182.51105      2846.087 5        33.000    24059132.734 6  98518152.50706      2846.280 6        37.500
G06  24014305.725 6 126196071.19106     -3632.441 6        37.000    24014305.708 4        29.750    24014308.278 4  98334637.68104     -2830.471 4        29.750    24014309.284 6  98334638.67006     -2830.403 6        36.000    24014308.710 6  94237371.28806     -2712.499 6        41.500
G07  22496699.326 7 118220997.36907      2600.408 7        46.500    22496698.906 7        45.250    22496697.765 7  92120271.06107      2026.292 7        45.250    22496697.948 7  92120259.06207      2026.352 7        43.750
G09  20456644.503 8 107500458.66508      -965.633 8        51.500    20456644.146 9        56.250    20456644.283 9  83766623.87709      -752.441 9        56.250    20456644.757 8  83766635.88108      -752.407 8        48.500    20456643.459 9  80276380.98409      -721.082 9        55.250
G11  22536273.803 7 118429001.31207     -1909.790 7        46.000    22536273.683 5        35.500    22536273.118 5  92282367.20105     -1488.146 5        35.500    22536273.221 7  92282358.20507     -1488.153 7        45.750    22536275.975 8  88437287.97208     -1426.193 8        50.000    22536273.819 7 118428998.31907     -1909.875 7        46.250
G16  22380542.951 7 117610565.02307       756.698 7        44.500    22380542.151 5        32.000    22380541.194 5  91644595.92205       589.630 5        32.000
G20  21697498.268 8 114021200.64908      1919.435 8        48.000    21697497.213 6        38.250    21697495.598 6  88847709.00106      1495.670 6        38.250
G26  23288759.270 7 122383257.11507     -1997.417 7        42.000    23288758.837 6        38.250    23288761.684 6  95363591.43106     -1556.427 6        38.250    23288761.658 6  95363589.45206     -1556.480 6        40.750    23288759.269 7  91390095.62807     -1491.575 7        46.250
G29  23816220.505 7 125155139.09707      -853.653 7        42.000    23816220.121 6        36.000    23816220.169 6  97523491.52506      -665.184 6        36.000    23816220.706 6  97523495.52706      -665.226 6        38.000
G30  24741284.269 5 130016334.39005      3729.174 5        34.000    24741283.603 3        22.250    24741285.856 3 101311440.67403      2905.852 3        22.250    24741286.514 5 101311447.67805      2905.976 5        31.000    24741286.526 6  97090136.31206      2784.855 6        41.250
I01  26217160.190 6 102881956.39506     -2869.550 6        36.000
I06  39677728.392 6 155704000.87906         5.895 6        37.250
I09  39284863.270 6 154162418.04506      -694.570 6        38.250
J02  42703259.229 6 224407154.36806        16.161 6        40.250    42703260.454 6 174862732.56706        12.507 6        40.250    42703260.582 7 167576786.31407        11.996 7        42.250    42703259.268 6 224407165.36206        16.069 6        40.250    42703256.031 6 224407142.21306        15.990 6        41.000
R01  19486457.981 8 104166380.80508     -1612.863 8        50.250    19486457.958 8 104166363.81308     -1612.839 8        50.000    19486463.823 7  81018333.31607     -1254.438 7        45.000    19486463.282 7  81018320.30407     -1254.430 7        45.500
R02  20171282.325 8 107637913.76908      2541.182 8        52.000    20171282.825 8 107637897.76908      2541.177 8        52.500    20171287.049 8  83718424.25008      1976.434 8        49.500    20171286.973 8  83718420.25008      1976.473 8        49.000
R08  23458218.321 5 125617783.78105     -4225.929 5        35.250    23458218.482 5 125617791.79205     -4225.888 5        34.750    23458221.371 6  97702792.05306     -3286.884 6        37.000    23458221.572 6  97702800.05406     -3286.956 6        37.500
R09  23920866.875 6 127736036.59806     -4281.812 6        36.000    23920865.833 5 127736048.58705     -4281.685 5        35.250    23920871.909 5  99350259.78905     -3330.221 5        34.000    23920871.386 5  99350247.79605     -3330.201 5        34.250    23920861.585 5  95911204.81305     -3214.721 5        35.250
R10  20943594.725 7 111641171.40307     -2228.126 7        46.500    20943594.367 7 111641150.41707     -2228.210 7        45.750
R11  20446473.470 8 109259798.19108      2359.123 8        51.750    20446473.644 8 109259805.19708      2359.140 8        52.250    20446476.565 8  84979863.27808      1834.851 8        50.000    20446476.605 8  84979908.27308      1834.875 8        49.500    20446464.197 8  81980628.31108      1770.092 8        49.500
R12  24142214.399 6 128963429.63006      4719.958 6        38.500    24142214.699 6 128963381.64606      4719.917 6        38.250    24142220.950 6 100304885.20506      3671.141 6        38.750    24142221.857 6 100304882.19806      3671.132 6        39.250    24142208.238 5  96798772.42505      3543.130 5        35.750
R17  22087842.677 7 118196614.24207     -3560.344 7        45.000    22087843.031 7 118196611.25207     -3560.319 7        45.000    22087848.599 7  91930734.90707     -2769.018 7        43.250    22087848.264 7  91930746.91907     -2769.148 7        43.250
R18  20996933.674 8 112083124.94708       -22.485 8        49.250    20996933.849 8 112083139.95308       -22.508 8        48.750    20996938.828 7  87175814.07107       -17.490 7        47.500    20996938.676 7  87175816.07107       -17.455 7        47.000
R19  22646847.774 5 121145363.55705      3280.576 5        34.250    22646847.112 5 121145357.55205      3280.880 5        33.250    22646853.720 6  94224248.97006      2551.763 6        38.500    22646852.978 6  94224250.97506      2551.624 6        38.750
S23  40209729.633 6 211303609.08406         5.153 6        38.000    40209700.184 5 157791500.33405         4.208 5        32.000
S36  40294838.964 6 211750955.01406          .519 6        36.250    40294801.628 5 158125457.21005         -.276 5        32.750
> 2024 03 30 00 00 30.0000000  0 55
C05                                                                                                                                                                                                  40964392.484 5 164946757.60005       -46.290 5        32.000    40964395.705 4                       -49.046 4        29.000
C06                                                                                                                                  38593812.553 6 200968199.09606     -1134.247 6        40.750    38593810.596 7 155401388.47407      -877.008 7        45.000    38593811.384 7 163303120.54007      -921.663 7        43.500
C09                                                                                                                                  38239546.386 7 199123417.05807      -745.734 7        44.250    38239545.570 8 153974904.39808      -576.631 8        48.500    38239544.430 7 161804112.29807      -605.890 7        44.500
C12                                                                                                                                                                                                  26856952.295 4 108141832.16304      2265.214 4        29.000
C16                                                                                                                                  39587552.203 6 206142808.45306     -1227.464 6        40.000    39587556.270 6 159402726.75606      -949.104 6        41.250    39587555.560 6 167507938.42806      -997.313 6        39.250
C19  26011798.945 6 136692948.93306      3359.573 6        36.750    26011800.984 6 102075909.66306      2508.589 6        39.750    26011796.844 6 135450265.61806      3328.947 6        38.250                                                                    26011797.557 6 110064441.89206      2705.092 6        41.000    26011799.667 6 104738757.54206      2574.252 6        39.750
C20  22395577.990 8 117689617.50308      1442.179 8        51.000    22395576.518 8  87885154.73808      1076.956 8        53.250    22395575.848 8 116619714.05508      1429.063 8        53.000                                                                    22395574.138 8  94763103.90308      1161.261 8        52.250    22395575.250 8  90177801.80708      1105.056 8        52.750
C23  23110668.337 8 121447436.46308      1024.066 8        49.250    23110663.409 8  90691267.95508       764.768 8        52.000    23110665.922 8 120343354.95408      1014.830 8        50.750                                                                    23110661.860 8  97788823.39708       824.622 8        52.000    23110661.878 8  93057110.03008       784.730 8        51.500
C25  24052897.006 7 126398854.59007     -2122.927 7        44.750    24052897.154 7  94388765.43907     -1585.360 7        46.500    24052895.008 7 125249751.97207     -2103.712 7        46.500                                                                    24052897.009 7 101775717.18407     -1709.374 7        46.750    24052895.788 7  96851076.75807     -1626.742 7        46.750
C29  26113617.809 4 137228035.25104     -3138.551 4        28.000    26113617.782 4 102475518.62404     -2343.466 4        28.750    26113613.696 5 135980492.84905     -3109.879 5        30.250                                                                    26113616.050 5 110495328.53605     -2526.952 5        31.500    26113616.457 5 105148769.73705     -2405.352 5        32.000
C32  22827217.737 8 119957938.54208     -2075.428 8        50.250    22827219.664 8  89579061.54208     -1549.816 8        52.250    22827214.553 8 118867417.38208     -2056.521 8        51.750                                                                    22827218.509 8  96589579.28708     -1671.098 8        52.250    22827218.070 8  91915896.24108     -1590.263 8        51.750
C35  24534427.205 7 128929351.03207      -633.107 7        42.750    24534428.422 7  96278469.52207      -472.828 7        44.000    24534425.037 7 127757272.24807      -627.474 7        45.500                                                                    24534428.004 7 103813274.96707      -509.892 7        45.750    24534427.762 7  98790057.64707      -485.232 7        45.250
C37  25415163.015 6 133557603.81406      3413.021 6        41.000    25415168.475 7  99734611.14107      2548.539 7        43.750    25415159.957 7 132343446.61907      3381.948 7        42.000                                                                    25415167.727 7 107539926.47507      2748.142 7        44.000    25415167.359 7 102336379.28107      2615.176 7        44.750
C39  40285786.760 6 211703312.13906     -1436.530 6        36.500    40285786.796 6 158090152.88906     -1072.714 6        40.250    40285784.503 6 209778710.82506     -1423.369 6        38.500                                                                    40285785.882 6 170462411.62106     -1156.621 6        40.000    40285785.515 6 162214235.46106     -1100.715 6        40.000
C41                                                                  27123961.793 5 106440394.89305     -2631.438 5        31.750    27123959.249 3                     -3491.029 3        22.500                                                                    27123958.505 5 114770456.59205     -2837.331 5        34.500    27123961.079 5 109216955.66005     -2700.309 5        33.250
C44  25491068.544 6 133956503.46406      1916.460 6        36.000    25491075.109 6 100032492.97906      1431.237 6        38.750    25491068.003 6 132738728.93806      1898.976 6        39.750                                                                    25491072.321 6 107861103.56806      1543.200 6        39.250    25491073.009 6 102642020.73806      1468.391 6        39.500
C48  23583517.476 7 123932271.99607      2604.631 7        45.000    23583533.547 8  92546917.07308      1945.063 8        48.500    23583514.135 7 122805600.06407      2581.004 7        47.000                                                                    23583515.551 8  99789637.04908      2097.257 8        48.750    23583533.012 8  94961177.30808      1995.748 8        48.500
C57                                                                                                                                  23289786.727 7 121276058.48707       636.025 7        42.500                                                                    23289913.348 7  98547284.91407       516.830 7        43.750
E02  25438258.691 7 133678971.67507       712.390 7        45.250    25438258.660 8 108505667.05708       578.212 8        48.500    25438258.928 8  99825223.79508       532.026 8        48.250    25438257.258 8 102429343.49208       545.889 8        49.250    25438257.813 8 101127286.21708       538.957 8        51.750
E07  23518784.787 8 123592122.96608      -370.278 8        49.750    23518783.889 8 100318331.77208      -300.567 8        53.750    23518786.446 8  92292888.60508      -276.538 8        53.000    23518784.892 9  94700513.33709      -283.728 9        54.000    23518785.399 9  93496707.04609      -280.131 9        56.500
E08  26258267.242 6 137988217.16406     -2735.177 6        41.250    26258266.845 7 112003457.13207     -2220.142 7        46.000    26258267.627 7 103043210.77907     -2042.594 7        44.750    26258266.041 7 105731279.45007     -2095.872 7        46.000    26258266.624 8 104387250.68708     -2069.229 8        48.500
E10  27936559.224 5 146807620.13205      2778.704 5        34.750    27936562.730 6 119162058.93006      2255.588 6        41.250    27936564.388 6 109629090.75106      2075.127 6        40.500    27936562.535 6 112488973.99006      2129.255 6        41.750    27936562.920 7 111059041.94307      2102.182 7        44.000
E12  26536797.810 6 139451887.49806      1816.638 6        38.000    26536795.386 7 113191475.86007      1474.610 7        43.250    26536796.920 7 104136173.61207      1356.486 7        42.750    26536795.317 7 106852759.54407      1392.021 7        43.000    26536795.868 7 105494466.15207      1374.270 7        46.000
E18  22541710.821 6 118457508.13706      2531.054 6        36.750    22541712.587 6  96150584.03606      2054.407 6        39.000    22541714.487 6  88458555.88006      1889.989 6        39.750    22541712.817 6  90766158.98606      1939.285 6        41.000    22541713.811 7  89612366.50907      1914.618 7        43.500
E25  26937812.416 6 141559148.23306     -2001.026 6        39.250    26937813.159 7 114901909.51507     -1624.241 7        42.750    26937816.691 6 105709771.08106     -1494.337 6        41.500    26937814.801 7 108467391.73007     -1533.384 7        42.750    26937815.522 7 107088584.97807     -1513.857 7        45.250
E26  26994798.912 6 141858692.61406     -3229.619 6        37.250    26994799.986 7 115145066.57507     -2621.259 7        43.500    26994800.250 7 105933481.76707     -2411.695 7        42.500    26994798.785 7 108696947.84107     -2474.577 7        44.000    26994798.826 7 107315211.37807     -2443.135 7        46.250
E30  27048410.291 6 142140378.06506      3002.473 6        38.250    27048410.161 7 115373692.91007      2437.188 7        42.250    27048412.549 6 106143806.49506      2242.150 6        41.500    27048410.601 7 108912768.92207      2300.724 7        42.250    27048411.264 7 107528294.28207      2271.443 7        45.000
E33  25090578.876 7 131851954.64907     -1289.864 7        45.250    25090579.216 8 107022740.62408     -1046.825 8        49.750    25090579.395 8  98460939.18508      -963.190 8        49.250    25090577.174 8 101029473.61308      -988.251 8        49.500    25090578.012 8  99745210.47308      -975.728 8        52.500
G04  22653881.130 7 119047034.17607     -3205.609 7        43.750    22653880.956 5        32.250    22653881.058 5  92763953.69105     -2497.876 5        32.250    22653881.000 7  92763945.69007     -2497.928 7        44.000    22653883.252 7  88898814.53207     -2393.842 7        47.000    22653881.235 7 119047047.18507     -3205.639 7        44.250
G05  24038302.892 6 126322167.26606      3645.115 6        40.250    24038302.678 5        33.750    24038301.532 5  98432885.76805      2840.340 5        33.750    24038302.543 6  98432855.77106      2840.472 6        37.750
G06  24035061.785 6 126305144.18306     -3639.097 6        38.000    24035061.750 4        28.750    24035064.244 4  98419629.61004     -2835.665 4        28.750    24035065.080 5  98419630.59605     -2835.541 5        34.750    24035064.498 6  94318821.89306     -2717.382 6        41.250
G07  22481885.753 7 118143150.79507      2589.320 7        47.000    22481885.333 7        45.750    22481884.107 7  92059611.42007      2017.649 7        45.750    22481884.308 7  92059599.43407      2017.589 7        43.750
G09  20462208.100 8 107529695.99608      -983.512 8        51.750    20462207.743 9        56.000    20462208.019 9  83789406.21009      -766.372 9        56.000    20462208.238 8  83789418.22108      -766.400 8        48.000    20462207.218 9  80298214.05809      -734.429 9        55.000
G11  22547228.366 7 118486566.37307     -1927.788 7        46.250    22547228.246 5        35.750    22547227.172 5  92327223.05605     -1502.170 5        35.750    22547227.529 7  92327214.06207     -1502.191 7        45.000    22547230.010 8  88480274.81008     -1439.633 8        49.000    22547228.517 7 118486563.37607     -1927.878 7        46.250
G16  22376288.265 7 117588204.80707       733.881 7        44.750    22376287.461 5        32.000    22376286.007 5  91627172.36205       571.858 5        32.000
G20  21686587.942 8 113963866.54608      1902.811 8        48.250    21686586.892 6        38.250    21686585.179 6  88803033.11806      1482.710 6        38.250
G26  23300212.254 6 122443445.64106     -2015.135 6        41.000    23300211.825 6        36.750    23300215.115 6  95410491.45606     -1570.237 6        36.750    23300215.097 6  95410489.45306     -1570.191 6        39.000    23300213.344 7  91435041.45107     -1504.800 7        46.000
G29  23821152.463 7 125181058.30607      -874.321 7        42.000    23821152.070 6        36.000    23821152.257 6  97543688.29306      -681.290 6        36.000    23821153.317 6  97543692.28806      -681.197 6        38.000
G30  24720004.609 5 129904505.93605      3726.120 5        34.250    24720003.934 3        22.500    24720005.762 3 101224301.67703      2903.464 3        22.500    24720006.558 5 101224308.68705      2903.410 5        32.250    24720005.913 6  97006628.14306      2782.248 6        41.250
I01  26239100.443 5 102968054.69205     -2870.538 5        35.750
I06  39677683.260 6 155703822.71006         5.828 6        37.250
I09  39290176.528 6 154183267.41906      -695.252 6        38.750
J02  42703170.042 6 224406687.17006        15.053 6        40.000    42703171.669 6 174862368.53706        11.827 6        40.000    42703171.727 7 167576437.45707        11.147 7        42.500    42703170.251 6 224406698.16806        15.019 6        40.250    42703166.773 6 224406675.01206        15.208 6        41.000
R01  19495567.378 8 104215075.86908     -1633.514 8        50.250    19495567.526 8 104215058.87608     -1633.477 8        50.000    19495573.189 7  81056207.21207     -1270.487 7        44.750    19495572.406 7  81056194.20207     -1270.573 7        45.250
R02  20157043.163 8 107561927.34208      2524.609 8        52.250    20157043.140 8 107561911.34308      2524.606 8        52.500    20157047.533 8  83659323.70408      1963.572 8        50.000    20157047.515 8  83659319.70808      1963.552 8        49.750
R08  23481904.510 5 125744624.23205     -4230.043 5        34.500    23481904.282 5 125744632.24105     -4230.129 5        33.500    23481908.468 6  97801445.70906     -3289.976 6        37.250    23481908.137 6  97801453.72506     -3290.121 6        37.750
R09  23944935.902 5 127864596.01505     -4288.610 5        30.250    23944938.321 5 127864608.01705     -4288.862 5        31.000    23944946.714 5  99450250.51605     -3335.884 5        31.000    23944946.969 5  99450238.49805     -3335.895 5        30.250    23944937.355 5  96007734.33805     -3220.371 5        32.750
R10  20956201.919 7 111708373.32107     -2251.961 7        46.500    20956201.481 7 111708352.32907     -2252.008 7        45.750
R11  20433296.765 8 109189386.07308      2335.067 8        52.000    20433296.998 8 109189393.08308      2335.096 8        52.000    20433300.142 8  84925098.29408      1816.113 8        50.000    20433300.205 8  84925143.28708      1816.154 8        49.750    20433287.533 8  81927796.15108      1752.021 8        49.500
R12  24115711.521 6 128821851.15306      4718.378 6        40.500    24115711.266 6 128821803.15406      4718.436 6        40.250    24115717.097 6 100194768.74306      3669.917 6        38.500    24115717.307 6 100194765.74606      3669.782 6        39.000    24115704.654 6  96692505.02806      3541.604 6        36.750
R17  22107851.163 7 118303681.89707     -3577.538 7        45.000    22107851.221 7 118303678.90707     -3577.535 7        44.750    22107856.857 7  92014009.73707     -2782.526 7        43.000    22107857.187 7  92014021.74107     -2782.616 7        43.250
R18  20997142.320 8 112084238.09708       -51.679 8        49.250    20997142.325 8 112084253.10408       -51.745 8        48.750    20997147.725 8  87176679.82108       -40.131 8        48.000    20997147.608 7  87176681.82407       -40.249 7        47.500
R19  22628502.016 5 121047234.85605      3261.395 5        34.750    22628502.499 5 121047228.88205      3261.086 5        33.000    22628509.206 6  94147926.91306      2536.547 6        40.250    22628509.506 6  94147928.89606      2536.632 6        40.500
S23  40209702.199 6 211303454.81806         4.946 6        38.250    40209670.707 5 157791385.16115         3.635 5        31.750
S36  40294839.147 6 211750936.30506          .896 6        36.500    40294798.515 5 158125444.36315          .203 5        33.000
> 2024 03 30 00 01  0.0000000  0 55
C05                                                                                                                                                                                                  40964737.474 5 164948147.04905       -46.283 5        32.000    40964741.218 4                       -48.177 4        29.500
C06                                                                                                                                  38600352.493 6 201002252.64106     -1136.124 6        40.750    38600350.300 7 155427720.81207      -878.474 7        44.500    38600350.882 7 163330791.79907      -922.976 7        43.000
C09                                                                                                                                  38243848.986 7 199145822.60607      -748.055 7        44.000    38243848.572 8 153992229.83308      -578.433 8        48.000    38243847.044 7 161822318.68307      -607.864 7        44.500
C12                                                                                                                                                                                                  26840101.115 5 108073957.76705      2258.821 5        31.250    26840097.811 5                      2373.965 5        31.500
C16                                                                                                                                  39594626.342 6 206179647.03106     -1228.663 6        40.000    39594630.882 6 159431212.64106      -949.989 6        41.250    39594629.863 6 167537872.75106      -998.125 6        39.250
C19  25992629.149 6 136592214.70706      3356.028 6        37.500    25992631.407 6 102000686.28606      2506.199 6        40.250    25992627.476 6 135350447.13906      3325.572 6        39.000                                                                    25992628.284 6 109983331.40106      2702.210 6        41.500    25992630.134 6 104661571.80206      2571.473 6        40.500
C20  22387383.992 8 117646557.10008      1428.494 8        50.500    22387382.400 8  87852999.26108      1066.747 8        53.000    22387381.747 8 116577045.10908      1415.527 8        53.000                                                                    22387380.252 8  94728431.90208      1150.232 8        52.500    22387380.846 8  90144807.48708      1094.560 8        52.750
C23  23104870.427 8 121416967.50908      1007.187 8        48.750    23104865.401 8  90668515.15008       752.085 8        52.000    23104868.066 8 120313162.99608       997.958 8        50.750                                                                    23104863.950 8  97764289.94608       810.929 8        52.250    23104863.838 8  93033763.67408       771.705 8        51.500
C25  24065055.115 7 126462746.14407     -2136.478 7        44.250    24065055.303 7  94436476.59807     -1595.521 7        46.500    24065052.384 7 125313062.70607     -2117.138 7        46.250                                                                    24065055.110 7 101827162.29007     -1720.379 7        47.000    24065053.664 7  96900032.56607     -1637.088 7        46.750
C29  26131549.986 4 137322276.94904     -3144.486 4        26.250    26131548.515 4 102545893.77704     -2348.507 4        26.500    26131543.341 4 136073877.76804     -3116.208 4        27.250                                                                    26131552.189 5 110571211.40805     -2531.565 5        33.250    26131550.346 5 105220980.72505     -2409.120 5        34.000
C32  22839100.635 8 120020383.40108     -2087.597 8        50.000    22839102.482 8  89625692.43108     -1558.969 8        52.000    22839097.376 8 118929294.54808     -2068.596 8        51.750                                                                    22839101.470 8  96639859.54608     -1680.901 8        52.250    22839101.049 8  91963743.58708     -1599.576 8        51.750
C35  24538093.207 7 128948614.26807      -651.109 7        42.750    24538094.182 7  96292854.43507      -486.138 7        44.000    24538091.141 7 127776360.32907      -645.076 7        46.000                                                                    24538093.733 7 103828785.62507      -524.128 7        45.750    24538093.030 7  98804817.80507      -498.829 7        45.000
C37  25395695.149 6 133455299.24206      3407.340 6        40.500    25395700.139 7  99658214.90907      2544.451 7        43.750    25395692.006 7 132242072.06507      3376.441 7        42.500                                                                    25395700.223 7 107457551.38307      2743.546 7        44.250    25395699.225 7 102257990.11107      2610.793 7        44.500
C39  40293989.509 6 211746417.46306     -1437.239 6        36.000    40293989.626 6 158122341.84706     -1073.223 6        40.000    40293987.225 6 209821424.28706     -1424.095 6        38.500                                                                    40293989.016 6 170497119.74906     -1157.104 6        40.500    40293988.183 6 162247264.13406     -1101.184 6        39.500
C41  27144073.724 3                     -3521.016 3        18.250    27144082.324 5 106519351.90405     -2632.159 5        32.750    27144068.484 3                     -3490.509 3        22.750                                                                    27144077.779 5 114855592.88805     -2838.018 5        34.500    27144082.406 5 109297972.40405     -2700.746 5        35.250
C44  25480169.617 6 133899223.65106      1902.071 6        36.250    25480175.131 6  99989718.99606      1420.460 6        39.000    25480169.389 6 132681969.82306      1884.827 6        39.750                                                                    25480173.010 6 107814982.09506      1531.523 6        39.750    25480173.706 6 102598130.91406      1457.383 6        40.250
C48  23568674.121 7 123854270.55707      2595.447 7        45.250    23568690.367 8  92488669.26608      1938.131 8        49.250    23568670.929 8 122728307.73208      2571.752 8        48.000                                                                    23568672.528 8  99726830.70708      2089.805 8        50.250    23568690.047 8  94901409.98608      1988.727 8        49.500
C57                                                                                                                                  23286173.875 7 121257246.93607       618.030 7        42.500                                                                    23286300.599 7  98531999.07807       502.303 7        44.250
E02  25434235.013 7 133657828.79607       697.164 7        44.500    25434235.300 8 108488505.60408       565.839 8        48.000    25434235.849 8  99809435.25108       520.583 8        48.000    25434233.982 8 102413143.08408       534.060 8        48.250    25434234.502 8 101111291.74308       527.320 8        51.000
E07  23520932.052 8 123603406.30308      -381.934 8        50.000    23520930.791 8 100327490.32708      -309.980 8        53.000    23520933.496 8  92301314.48508      -285.188 8        53.000    23520931.946 8  94709159.01808      -292.613 8        53.500    23520932.493 9  93505242.82509      -288.895 9        56.250
E08  26273896.408 6 138070348.44106     -2740.168 6        41.750    26273895.697 7 112070122.10807     -2224.207 7        45.250    26273896.878 7 103104542.55107     -2046.299 7        44.750    26273895.493 7 105794211.18507     -2099.629 7        46.000    26273895.709 8 104449382.44208     -2072.963 8        48.500
E10  27920717.571 6 146724372.81306      2771.027 6        36.000    27920721.470 6 119094488.27306      2249.115 6        41.250    27920722.887 6 109566925.82006      2069.213 6        40.750    27920720.220 6 112425187.33906      2123.139 6        41.500    27920721.285 7 110996066.15407      2096.165 7        44.250
E12  26526463.371 6 139397581.41006      1803.682 6        37.750    26526461.028 7 113147396.31007      1464.138 7        42.500    26526462.477 7 104095620.45107      1346.943 7        42.500    26526461.227 7 106811148.47007      1382.077 7        42.750    26526461.684 7 105453384.03307      1364.512 7        45.750
E18  22527353.818 6 118382057.59706      2498.867 6        37.500    22527354.538 6  96089341.73106      2028.262 6        39.250    22527357.824 6  88402213.00806      1866.113 6        40.000    22527355.658 6  90708346.28006      1914.766 6        41.250    22527355.842 7  89555288.71707      1890.431 7        43.750
E25  26949269.857 6 141619357.75006     -2012.821 6        39.250    26949270.909 7 114950780.78707     -1633.681 7        43.250    26949274.602 7 105754732.60007     -1503.011 7        42.250    26949272.324 7 108513526.17207     -1542.331 7        42.750    26949273.040 7 107134132.96207     -1522.684 7        45.500
E26  27013249.305 6 141955650.14706     -3234.446 6        37.250    27013250.639 7 115223765.81407     -2625.283 7        43.250    27013250.607 7 106005885.03507     -2415.344 7        42.000    27013249.196 7 108771239.90207     -2478.213 7        43.500    27013249.327 7 107388559.04207     -2446.769 7        45.750
E30  27031286.521 6 142050392.60306      2996.266 6        38.250    27031286.212 6 115300652.80906      2432.259 6        41.750    27031289.016 6 106076609.64106      2237.582 6        41.750    27031287.028 7 108843819.08907      2295.954 7        42.000    27031287.516 7 107460220.93807      2266.776 7        45.000
E33  25097984.652 7 131890870.23507     -1304.502 7        45.750    25097984.290 8 107054327.90008     -1058.890 8        49.250    25097984.755 8  98489999.45508      -974.215 8        49.750    25097982.816 8 101059291.98508      -999.590 8        49.750    25097983.461 8  99774649.79208      -986.898 8        52.750
G04  22672206.469 7 119143334.38707     -3214.375 7        43.750    22672206.286 5        32.250    22672206.362 5  92838992.79305     -2504.708 5        32.250    22672206.563 7  92838984.78807     -2504.665 7        44.250    22672208.986 7  88970727.00007     -2400.330 7        47.500    22672206.508 7 119143347.38807     -3214.444 7        44.000
G05  24017514.668 6 126212924.12406      3637.701 6        41.000    24017514.445 5        34.750    24017513.380 5  98347761.37805      2834.567 5        34.750    24017514.238 6  98347731.39406      2834.505 6        38.250
G06  24055855.491 6 126414415.03406     -3645.732 6        39.000    24055855.451 4        29.250    24055858.308 4  98504775.73004     -2840.831 4        29.250    24055858.715 5  98504776.71605     -2840.772 5        34.000    24055857.833 6  94400420.25406     -2722.371 6        41.000
G07  22467135.444 7 118065637.95007      2578.188 7        46.750    22467135.024 7        45.500    22467133.789 7  91999211.80907      2008.977 7        45.500    22467133.646 7  91999199.82007      2008.987 7        43.500
G09  20467872.953 8 107559465.78308     -1001.252 8        51.500    20467872.596 9        56.000    20467873.010 9  83812603.44009      -780.197 9        56.000    20467873.440 8  83812615.44908      -780.245 8        48.000    20467872.146 9  80320444.73309      -747.674 9        54.750
G11  22558284.994 7 118544671.53107     -1945.803 7        45.500    22558284.883 5        35.500    22558284.403 5  92372499.76605     -1516.207 5        35.500    22558284.868 7  92372490.76607     -1516.226 7        45.500    22558287.130 8  88523664.97708     -1453.029 8        48.500    22558285.158 7 118544668.52907     -1945.775 7        45.250
G16  22372164.208 7 117566531.62707       710.944 7        45.500    22372163.399 5        32.500    22372162.281 5  91610284.03905       553.995 5        32.500
G20  21675772.791 8 113907032.68408      1886.059 8        48.500    21675771.745 6        38.250    21675770.162 6  88758746.99806      1469.651 6        38.250
G26  23311766.725 6 122504164.54206     -2032.868 6        41.250    23311766.296 6        36.500    23311769.363 6  95457804.91006     -1584.057 6        36.500    23311769.050 6  95457802.90106     -1584.076 6        39.000    23311767.489 7  91480383.48507     -1517.949 7        46.000
G29  23826201.703 6 125207593.86206      -894.771 6        41.250    23826201.306 5        35.250    23826201.716 5  97564365.41405      -697.231 5        35.250    23826201.730 6  97564369.42506      -697.212 6        37.750
G30  24698741.471 5 129792773.35505      3722.947 5        33.750    24698740.774 4        24.000    24698744.507 4 101137237.41304      2900.990 4        24.000    24698745.138 5 101137244.43805      2900.977 5        33.000    24698744.694 7  96923191.56807      2780.073 7        42.250
I01  26261045.869 5 103054172.91905     -2870.950 5        35.500
I06  39677639.152 6 155703651.22806         5.672 6        37.000
I09  39295495.603 6 154204140.43306      -696.163 6        38.750
J02  42703087.407 6 224406250.48806        13.971 6        40.000    42703088.766 6 174862028.25806        10.844 6        39.750    42703088.680 7 167576111.34707        10.409 7        42.500    42703087.204 6 224406261.48606        14.129 6        40.250    42703083.704 6 224406238.34106        13.999 6        41.000
R01  19504792.698 8 104264391.20808     -1654.177 8        50.000    19504792.809 8 104264374.21308     -1654.128 8        49.750    19504798.714 7  81094563.52407     -1286.549 7        44.500    19504798.128 7  81094550.51507     -1286.548 7        44.750
R02  20142896.576 8 107486440.45108      2507.875 8        52.250    20142896.925 8 107486424.45408      2507.890 8        52.250    20142901.220 8  83600611.64308      1950.539 8        49.750    20142901.086 8  83600607.64108      1950.561 8        49.500
R08  23505615.526 5 125871588.81405     -4234.297 5        34.250    23505615.660 5 125871596.81305     -4233.973 5        32.750    23505619.068 6  97900195.95506     -3293.182 6        38.500    23505617.829 6  97900203.94606     -3293.337 6        38.500
R09  23969053.871 5 127993373.38105     -4296.304 5        33.000    23969055.597 5 127993385.39405     -4296.343 5        31.750    23969063.560 5  99550410.75405     -3341.549 5        32.250    23969063.296 5  99550398.76805     -3341.328 5        31.250    23969054.788 5  96104427.49205     -3225.635 5        34.500
R10  20968942.672 7 111776289.16707     -2275.711 7        46.250    20968942.551 7 111776268.17107     -2275.757 7        46.000
R11  20420255.349 8 109119697.28808      2310.837 8        51.750    20420255.689 8 109119704.29708      2310.859 8        52.250    20420258.932 8  84870895.92808      1797.322 8        50.500    20420258.789 8  84870940.92308      1797.312 8        50.250    20420246.314 8  81875506.73508      1733.845 8        49.500
R12  24089216.652 6 128680322.82206      4716.882 6        39.500    24089216.760 6 128680274.82906      4716.765 6        39.250    24089222.465 6 100084691.28706      3668.666 6        38.750    24089221.799 6 100084688.29306      3668.541 6        38.750    24089210.098 6  96586275.27206      3540.240 6        36.250
R17  22127955.041 7 118411264.86307     -3594.646 7        45.000    22127955.466 7 118411261.87407     -3594.707 7        44.250    22127961.231 7  92097685.37007     -2795.929 7        42.750    22127961.357 7  92097697.35907     -2795.808 7        43.250
R18  20997514.722 8 112086228.15008       -80.942 8        49.250    20997514.860 8 112086243.15208       -80.954 8        48.750    20997520.636 8  87178227.61408       -62.915 8        48.000    20997520.479 8  87178229.61208       -62.975 8        48.000
R19  22610265.403 5 120949685.57805      3241.923 5        33.250    22610266.306 5 120949679.63505      3241.678 5        32.500    22610273.040 6  94072055.37306      2521.327 6        38.500    22610273.151 6  94072057.35706      2521.494 6        39.000
S23  40209669.449 6 211303300.27006         5.096 6        38.000    40209641.163 5 157791268.85115         3.982 5        32.250
S36  40294836.299 6 211750927.64806          .259 6        36.250    40294795.264 5 158125433.95405          .685 5        32.750
> 2024 03 30 00 01 30.0000000  0 55
C05                                                                                                                                                                                                  40965082.500 5 164949537.03005       -46.398 5        32.000    40965085.698 4                       -48.432 4        29.000
C06                                                                                                                                  38606902.817 6 201036360.20006     -1137.763 6        40.750    38606900.288 7 155454094.96707      -879.901 7        44.750    38606900.659 7 163358507.00907      -924.536 7        42.500
C09                                                                                                                                  38248164.513 7 199168296.91507      -750.235 7        43.250    38248164.359 7 154009608.40307      -580.182 7        47.500    38248163.009 7 161840580.91407      -609.676 7        44.000
C12                                                                                                                                  26823284.163 4 139675922.02114      2912.800 4        27.500    26823290.251 5 108006280.37205      2252.701 5        30.250    26823292.237 5 113498123.88315      2367.130 5        33.000
C16                                                                                                                                  39601708.184 6 206216522.07706     -1229.842 6        40.250    39601712.233 6 159459726.75106      -950.940 6        40.750    39601711.138 6 167567836.73806      -999.314 6        38.000
C19  25973480.650 6 136491586.48006      3352.527 6        38.000    25973482.229 6 101925541.96206      2503.446 6        39.250    25973478.459 6 135250733.73006      3321.861 6        39.500                                                                    25973478.833 6 109902306.16606      2699.299 6        40.500    25973481.193 6 104584467.17506      2568.763 6        40.250
C20  22379268.019 8 117603907.51308      1414.806 8        50.500    22379266.521 8  87821150.54608      1056.545 8        53.000    22379265.859 8 116534783.24108      1401.970 8        53.000                                                                    22379264.207 8  94694090.68208      1139.188 8        52.250    22379265.137 8  90112127.93208      1084.108 8        53.000
C23  23099169.488 8 121387008.69508       990.116 8        48.500    23099164.364 8  90646143.30408       739.367 8        51.750    23099167.082 8 120283476.53508       981.112 8        50.500                                                                    23099163.047 8  97740167.25908       797.271 8        52.000    23099162.962 8  93010808.21608       758.651 8        51.750
C25  24077290.025 7 126527041.52707     -2149.870 7        44.250    24077290.405 7  94484489.29107     -1605.422 7        46.750    24077287.825 7 125376773.56307     -2130.299 7        46.250                                                                    24077290.560 7 101878932.52707     -1730.992 7        47.250    24077289.137 7  96949297.77507     -1647.269 7        47.250
C29  26149519.389 4 137416702.23104     -3150.336 4        27.000    26149519.590 4 102616405.96304     -2352.275 4        26.250    26149516.304 5 136167444.60005     -3121.965 5        30.250                                                                    26149521.239 5 110647242.11905     -2536.740 5        32.750    26149520.335 5 105293332.40905     -2413.747 5        34.500
C32  22851052.809 8 120083193.50008     -2099.758 8        49.750    22851054.843 8  89672596.06808     -1567.979 8        52.000    22851049.755 8 118991533.65308     -2080.660 8        51.250                                                                    22851053.590 8  96690433.91308     -1690.735 8        51.750    22851053.406 8  92011870.79808     -1608.908 8        52.000
C35  24541860.245 7 128968411.70907      -668.749 7        42.500    24541861.251 7  96307638.38507      -499.395 7        43.750    24541858.273 7 127795977.80107      -662.687 7        46.000                                                                    24541860.494 7 103844726.54107      -538.505 7        45.000    24541860.269 7  98819987.40007      -512.468 7        45.000
C37  25376259.997 6 133353165.26706      3401.432 6        40.500    25376264.755 7  99581946.13307      2540.108 7        44.000    25376256.742 7 132140866.58407      3370.639 7        42.250                                                                    25376264.360 7 107375313.70507      2738.991 7        43.750    25376263.715 7 102179731.69107      2606.386 7        44.750
C39  40302195.800 5 211789541.65205     -1437.720 5        35.000    40302196.032 6 158154544.91606     -1073.602 6        39.750    40302193.868 6 209864156.47206     -1424.774 6        38.000                                                                    40302195.584 6 170531843.08006     -1157.736 6        40.500    40302194.264 6 162280307.28806     -1101.624 6        39.500
C41  27164197.425 3                     -3526.520 3        22.250    27164209.548 5 106598330.14805     -2633.427 5        30.500    27164197.350 3                     -3493.823 3        23.500                                                                    27164204.051 5 114940752.00905     -2838.917 5        30.250    27164207.798 5 109379010.92705     -2701.733 5        31.250
C44  25469351.734 5 133842379.45405      1887.562 5        34.500    25469357.878 6  99947270.33906      1409.403 6        38.500    25469350.719 6 132625642.44306      1870.213 6        37.750                                                                    25469355.546 6 107769211.38206      1519.929 6        39.250    25469356.105 6 102554574.90306      1446.300 6        40.250
C48  23553883.510 7 123776548.26407      2586.038 7        44.250    23553900.417 8  92430629.94708      1931.164 8        48.750    23553881.073 7 122651292.01807      2562.547 7        47.000                                                                    23553882.283 8  99664249.16708      2082.250 8        49.000    23553899.972 8  94841856.59308      1981.552 8        49.000
C57                                                                                                                                  23282664.684 7 121238974.32407       600.117 7        42.000                                                                    23282791.632 7  98517151.16007       487.623 7        43.500
