# 
# Header Description:
# 
# Version: 1.4.0.0, Platform: N
# 
# Raw,ElapsedRealtimeMillis,TimeNanos,LeapSecond,TimeUncertaintyNanos,FullBiasNanos,BiasNanos,BiasUncertaintyNanos,DriftNanosPerSecond,DriftUncertaintyNanosPerSecond,HardwareClockDiscontinuityCount, Svid,TimeOffsetNanos,State,ReceivedSvTimeNanos,ReceivedSvTimeUncertaintyNanos,Cn0DbHz,PseudorangeRateMetersPerSecond,PseudorangeRateUncertaintyMetersPerSecond,AccumulatedDeltaRangeState,AccumulatedDeltaRangeMeters,AccumulatedDeltaRangeUncertaintyMeters,CarrierFrequencyHz,CarrierCycles,CarrierPhase,CarrierPhaseUncertainty,MultipathIndicator,SnrInDb,ConstellationType
# 
# Fix,Provider,Latitude,Longitude,Altitude,Speed,Accuracy,(UTC)TimeInMs
# 
# Nav,Svid,Type,Status,MessageId,Sub-messageId,Data(Bytes)
# 
Nav,98,769,1,5,6,53,-84,49,44,16,-64,-60,-108,19,-75,-8
Nav,101,769,1,5,6,53,-84,49,44,16,-64,-60,-108,19,-75,-8
Nav,102,769,1,5,6,53,-84,49,44,16,-64,-60,-108,19,-75,-8
Nav,104,769,1,5,6,53,-84,49,44,16,-64,-60,-108,19,-75,-8
Nav,106,769,1,5,6,53,-84,49,44,16,-64,-60,-108,19,-75,-8
Fix,gps,60.143570,10.249047,177.853302,0.328579,2.000000,1480933031999
Raw,338064115,260938000000,,,-1164967988061876549,0.0,6.655902802989574,,,0,1,0.0,47,123448930889161,26,31.109655380249023,377.6501482641527,0.1317499959959889,1,82062.40635846001,0.0023840025532990694,,,,,0,,1
Raw,338064131,260938000000,,,-1164967988061876549,0.0,6.655902802989574,,,0,3,0.0,47,123448931136774,17,34.679100036621094,-206.0421849103675,0.08805770128882628,1,-21785.53900529969,0.001676527550444007,,,,,0,,1
Raw,338064131,260938000000,,,-1164967988061876549,0.0,6.655902802989574,,,0,11,0.0,47,123448926056375,23,32.205055236816406,684.8911900504836,0.11550248291104803,1,57495.533847599545,0.0022290151100605726,,,,,0,,1
Raw,338064133,260938000000,,,-1164967988061876549,0.0,6.655902802989574,,,0,12,0.0,47,123448917521736,36,28.307876586914062,-320.26527763950116,0.18235031204232077,1,-29326.98011244857,0.0032915135379880667,,,,,0,,1
Raw,338064134,260938000000,,,-1164967988061876549,0.0,6.655902802989574,,,0,14,0.0,47,123448926734439,16,35.35515594482422,310.38133116542963,0.08082189425390435,1,47369.4687774682,0.0015509863151237369,,,,,0,,1
Raw,338064134,260938000000,,,-1164967988061876549,0.0,6.655902802989574,,,0,17,0.0,47,123448925202123,60,22.89507484436035,-179.60571851897134,4.2009356923577545,4,-16766.90086504302,3.4028234663852886E38,,,,,0,,1
Raw,338064134,260938000000,,,-1164967988061876549,0.0,6.655902802989574,,,0,19,0.0,47,123448923718984,49,25.535884857177734,-364.1499849880979,0.2472354709624245,1,-10206.507378112485,0.004528926685452461,,,,,0,,1
Raw,338064136,260938000000,,,-1164967988061876549,0.0,6.655902802989574,,,0,22,0.0,16,260011748576,1000000000,16.545394897460938,26.546086222341174,2.99792458E8,2,0.2912038095446942,3.4028234663852886E38,,,,,0,,1
Raw,338064136,260938000000,,,-1164967988061876549,0.0,6.655902802989574,,,0,23,0.0,16,260019021283,1000000000,20.507266998291016,-623.4178220238123,2.99792458E8,2,-11.830952161651851,3.4028234663852886E38,,,,,0,,1
Raw,338064136,260938000000,,,-1164967988061876549,0.0,6.655902802989574,,,0,28,0.0,16,260014796726,1000000000,23.451047897338867,630.289117918463,2.99792458E8,2,8.806827220189682,3.4028234663852886E38,,,,,0,,1
Raw,338064137,260938000000,,,-1164967988061876549,0.0,6.655902802989574,,,0,31,0.0,47,123448920854399,48,25.709163665771484,-428.48869921709843,0.2454475731918817,1,-36920.682044515124,0.004439471289515495,,,,,0,,1
Raw,338064137,260938000000,,,-1164967988061876549,0.0,6.655902802989574,,,0,32,0.0,47,123448921616220,16,35.11197280883789,629.6999004100967,0.08216165265409825,1,119859.59389978829,0.0015950234374031425,,,,,0,,1
Raw,338064138,260938000000,,,-1164967988061876549,0.0,6.655902802989574,,,0,93,0.0,16,260010833225,1000000000,25.45136260986328,-657.5931873231038,2.99792458E8,2,-6.556319677167375,3.4028234663852886E38,,,,,0,,3
Raw,338064138,260938000000,,,-1164967988061876549,0.0,6.655902802989574,,,0,96,0.0,227,47831923875712,60,29.86395835876465,-699.5970202260328,0.15050355150300032,1,-52407.31789716551,0.00270979106426239,,,,,0,,3
Raw,338064142,260938000000,,,-1164967988061876549,0.0,6.655902802989574,,,0,98,0.0,227,47831925366115,54,30.729381561279297,-12.531874295781122,0.1365651165265676,1,-4249.837250401498,0.0024510901421308517,,,,,0,,3
Raw,338064143,260938000000,,,-1164967988061876549,0.0,6.655902802989574,,,0,99,0.0,16,260001695774,1000000000,22.354537963867188,595.2676215535362,2.99792458E8,2,0.6043074898383787,3.4028234663852886E38,,,,,0,,3
Raw,338064143,260938000000,,,-1164967988061876549,0.0,6.655902802989574,,,0,101,0.0,227,47831935432895,62,29.6212100982666,-135.55654627642377,0.156828177043408,1,-11774.479326674511,0.0027817003428936005,,,,,0,,3
Raw,338064143,260938000000,,,-1164967988061876549,0.0,6.655902802989574,,,0,102,0.0,227,47831934172540,88,26.6025390625,392.62887666908,0.22062208160727625,1,30740.844950350755,0.003936329390853643,,,,,0,,3
Raw,338064144,260938000000,,,-1164967988061876549,0.0,6.655902802989574,,,0,103,0.0,227,47831924464708,121,23.82788848876953,892.0162086870373,0.3009500548317037,4,82075.95259834285,3.4028234663852886E38,,,,,0,,3
Raw,338064144,260938000000,,,-1164967988061876549,0.0,6.655902802989574,,,0,104,0.0,227,47831931044003,40,33.30705642700195,-443.0222766573813,0.10276684411938797,1,-42798.747815064016,0.0019281338900327682,,,,,0,,3
Raw,338064144,260938000000,,,-1164967988061876549,0.0,6.655902802989574,,,0,105,0.0,16,260007481535,1000000000,17.262611389160156,853.5615183116547,2.99792458E8,2,5.9979149248926245,3.4028234663852886E38,,,,,0,,3
Raw,338064145,260938000000,,,-1164967988061876549,0.0,6.655902802989574,,,0,106,0.0,227,47831931689778,34,34.77553176879883,580.1440767908434,0.08720707939357303,1,74672.85572798339,0.00162708037532866,,,,,0,,3
Fix,gps,60.143571,10.249047,177.900975,0.367342,2.000000,1480933032999
Raw,338065141,261938000000,,,-1164967988061876353,0.0,6.376010799948716,,,0,1,0.0,47,123449930887907,22,32.32796859741211,377.56736197725877,0.11476386881541722,1,82439.91305545588,0.0021976942662149668,,,,,0,,1
Raw,338065141,261938000000,,,-1164967988061876353,0.0,6.376010799948716,,,0,3,0.0,47,123449931137482,22,32.63345718383789,-206.18567205232853,0.11091030458203566,1,-21991.695745157693,0.0021217435132712126,,,,,0,,1
Raw,338065142,261938000000,,,-1164967988061876353,0.0,6.376010799948716,,,0,11,0.0,47,123449926054074,27,30.795902252197266,684.6364577704321,0.13565433443584074,1,58180.19978839812,0.002471691695973277,,,,,0,,1
Raw,338065142,261938000000,,,-1164967988061876353,0.0,6.376010799948716,,,0,12,0.0,47,123449917522740,44,26.440067291259766,-320.4860297103994,0.225342168999196,1,-29647.435307257514,0.0040811835788190365,,,,,0,,1
Raw,338065142,261938000000,,,-1164967988061876353,0.0,6.376010799948716,,,0,14,0.0,47,123449926733394,16,34.999141693115234,310.2545444271648,0.08415254739957523,1,47679.749221389,0.0016158781945705414,,,,,0,,1
Raw,338065143,261938000000,,,-1164967988061876353,0.0,6.376010799948716,,,0,17,0.0,47,123449925202674,48,25.863353729248047,-180.11816529402006,0.23837957399404364,1,-16946.96846359873,0.004361358005553484,,,,,0,,1
Raw,338065143,261938000000,,,-1164967988061876353,0.0,6.376010799948716,,,0,19,0.0,47,123449923720136,63,23.47256088256836,-364.29135901775453,0.3133493124252702,1,-10570.839988138834,0.005743298213928938,,,,,0,,1
Raw,338065143,261938000000,,,-1164967988061876353,0.0,6.376010799948716,,,0,22,0.0,16,261011748488,1000000000,23.847740173339844,26.36115907355547,2.99792458E8,2,0.2897936511082309,3.4028234663852886E38,,,,,0,,1
Raw,338065144,261938000000,,,-1164967988061876353,0.0,6.376010799948716,,,0,23,0.0,16,261019023315,1000000000,26.20995330810547,-623.602753432905,2.99792458E8,2,-11.829585148131843,3.4028234663852886E38,,,,,0,,1
Raw,338065144,261938000000,,,-1164967988061876353,0.0,6.376010799948716,,,0,28,0.0,16,261014794624,1000000000,18.45382308959961,630.1006419338919,2.99792458E8,2,8.818976117627766,3.4028234663852886E38,,,,,0,,1
Raw,338065145,261938000000,,,-1164967988061876353,0.0,6.376010799948716,,,0,31,0.0,47,123449920855800,56,24.422725677490234,-428.4470845376841,0.2840313769657252,1,-37349.247782689825,0.005148172844201326,,,,,0,,1
Raw,338065145,261938000000,,,-1164967988061876353,0.0,6.376010799948716,,,0,32,0.0,47,123449921614134,19,33.83371353149414,629.4635726565675,0.09514151854082692,1,120489.12578416472,0.0018479067366570234,,,,,0,,1
Raw,338065146,261938000000,,,-1164967988061876353,0.0,6.376010799948716,,,0,93,0.0,16,261010835224,1000000000,23.96365737915039,-657.8681645823299,2.99792458E8,2,-6.58995963681526,3.4028234663852886E38,,,,,0,,3
Raw,338065146,261938000000,,,-1164967988061876353,0.0,6.376010799948716,,,0,96,0.0,227,47832923878013,73,28.17684555053711,-699.7211485326889,0.18261990959880003,1,-53107.05051621867,0.0032907233107835054,,,,,0,,3
Raw,338065147,261938000000,,,-1164967988061876353,0.0,6.376010799948716,,,0,98,0.0,227,47832925366139,50,31.428926467895508,-12.567476616849497,0.12607236298657026,1,-4262.446180280959,0.0022614244371652603,,,,,0,,3
Raw,338065147,261938000000,,,-1164967988061876353,0.0,6.376010799948716,,,0,99,0.0,16,261001693789,1000000000,25.663938522338867,595.0840534427043,2.99792458E8,2,0.5948047856458301,3.4028234663852886E38,,,,,0,,3
Raw,338065148,261938000000,,,-1164967988061876353,0.0,6.376010799948716,,,0,101,0.0,227,47832935433302,83,27.136112213134766,-135.59777752820224,0.20785578857493503,4,-11910.142572174465,3.4028234663852886E38,,,,,0,,3
Raw,338065148,261938000000,,,-1164967988061876353,0.0,6.376010799948716,,,0,102,0.0,227,47832934171157,123,23.692325592041016,392.4815722919884,0.30741720095690694,4,31133.45111504953,3.4028234663852886E38,,,,,0,,3
Raw,338065148,261938000000,,,-1164967988061876353,0.0,6.376010799948716,,,0,103,0.0,227,47832924461659,114,24.36313247680664,890.5700900567745,0.2830121317839889,4,82967.16593181857,3.4028234663852886E38,,,,,0,,3
Raw,338065149,261938000000,,,-1164967988061876353,0.0,6.376010799948716,,,0,104,0.0,227,47832931045532,47,32.06966018676758,-443.15765217468993,0.11819731851086418,1,-43241.89797790702,0.0020961908157914877,,,,,0,,3
Raw,338065149,261938000000,,,-1164967988061876353,0.0,6.376010799948716,,,0,105,0.0,16,261007478689,1000000000,18.950054168701172,853.1969723566867,2.99792458E8,2,5.981996304946334,3.4028234663852886E38,,,,,0,,3
Raw,338065150,261938000000,,,-1164967988061876353,0.0,6.376010799948716,,,0,106,0.0,227,47832931687850,33,36.11727523803711,580.0205619684048,0.07502537205044324,1,75252.86606533438,0.0013941896613687277,,,,,0,,3
Nav,1,257,1,15,5,34,-61,-122,52,10,11,-19,124,19,-46,52,29,14,125,-11,78,63,75,0,55,40,67,76,36,26,-33,-106,-1,5,-119,-95,95,1,-28,100,-66,52,-64,7,-88
Nav,3,257,1,15,5,34,-61,-122,52,10,11,-19,124,19,-46,52,29,14,125,-11,78,63,75,0,55,40,67,76,36,26,-33,-106,-1,5,-119,-95,95,1,-28,100,-66,52,-64,7,-88
Nav,11,257,1,15,5,34,-61,-122,52,10,11,-19,124,19,-46,52,29,14,125,-11,78,63,75,0,55,40,67,76,36,26,-33,-106,-1,5,-119,-95,95,1,-28,100,-66,52,-64,7,-88
Nav,12,257,1,15,5,34,-61,-122,52,10,11,-19,124,19,-46,53,22,19,-67,-11,-117,63,76,0,37,40,67,78,27,26,-35,-79,-122,5,-118,-7,3,1,-83,-40,39,52,-64,7,119
Nav,14,257,1,15,5,34,-61,-122,52,10,11,-19,124,19,-46,52,29,14,125,-11,78,63,75,0,55,40,67,76,36,26,-33,-106,-1,5,-119,-95,95,1,-28,100,-66,52,-64,7,-88
Nav,19,257,1,15,5,34,-61,-122,52,10,11,-19,124,19,-46,52,29,14,125,-11,78,63,75,0,55,40,67,76,36,26,-33,-106,-1,5,-119,-95,95,1,-28,100,-66,52,-64,7,-88
Nav,31,257,1,15,5,34,-61,-122,52,10,11,-19,124,19,-46,53,22,19,-67,-11,-117,63,76,0,37,40,67,78,27,26,-35,-79,-122,5,-118,-7,3,1,-83,-40,39,52,-64,7,119
Nav,32,257,1,15,5,34,-61,-122,52,10,11,-19,124,19,-46,53,22,19,-67,-11,-117,63,76,0,37,40,67,78,27,26,-35,-79,-122,5,-118,-7,3,1,-83,-40,39,52,-64,7,119
Nav,98,769,1,5,7,63,-13,-6,34,-20,-76,-65,-10,24,69,-8
Nav,104,769,1,5,7,63,-13,-6,34,-20,-76,-65,-10,24,69,-8
Nav,106,769,1,5,7,63,-13,-6,34,-20,-76,-65,-10,24,69,-8
Fix,gps,60.143571,10.249048,177.934476,0.330226,2.000000,1480933033999
Raw,338066184,262938000000,,,-1164967988061876159,0.0,6.454270605556564,,,0,1,0.0,47,123450930886628,25,31.31941795349121,377.46122920764674,0.12865265290853167,1,82817.4673131558,0.0023271190002560616,,,,,0,,1
Raw,338066185,262938000000,,,-1164967988061876159,0.0,6.454270605556564,,,0,3,0.0,47,123450931138145,29,30.19778060913086,-206.0295573602258,0.14616166621407733,1,-22197.848207908988,0.0026478932704776525,,,,,0,,1
Raw,338066185,262938000000,,,-1164967988061876159,0.0,6.454270605556564,,,0,11,0.0,47,123450926051729,44,26.445322036743164,684.6844458692162,0.22314443301733133,4,58864.85927492696,3.4028234663852886E38,,,,,0,,1
Raw,338066185,262938000000,,,-1164967988061876159,0.0,6.454270605556564,,,0,12,0.0,47,123450917523831,38,27.893585205078125,-320.4049134638751,0.19110506000154848,1,-29967.837211586553,0.0034523126669228077,,,,,0,,1
Raw,338066186,262938000000,,,-1164967988061876159,0.0,6.454270605556564,,,0,14,0.0,47,123450926732364,20,33.4125862121582,310.40931286223486,0.10077426022872688,1,47990.06093203111,0.0019397084834054112,,,,,0,,1
Raw,338066186,262938000000,,,-1164967988061876159,0.0,6.454270605556564,,,0,17,0.0,47,123450925203304,33,29.046674728393555,-180.02689247545197,0.1655226316725663,1,-17127.009178461958,0.003023122437298298,,,,,0,,1
Raw,338066187,262938000000,,,-1164967988061876159,0.0,6.454270605556564,,,0,19,0.0,47,123450923721391,44,26.521240234375,-364.21576412918694,0.22079284336820426,1,-10935.11708353553,0.00404322100803256,,,,,0,,1
Raw,338066187,262938000000,,,-1164967988061876159,0.0,6.454270605556564,,,0,22,0.0,16,262011748400,1000000000,26.014692306518555,26.546086222341174,2.99792458E8,2,0.29161899762476673,3.4028234663852886E38,,,,,0,,1
Raw,338066187,262938000000,,,-1164967988061876159,0.0,6.454270605556564,,,0,23,0.0,16,262019025395,1000000000,27.947097778320312,-623.602753432905,2.99792458E8,2,-11.844215123999508,3.4028234663852886E38,,,,,0,,1
Raw,338066191,262938000000,,,-1164967988061876159,0.0,6.454270605556564,,,0,28,0.0,16,262014792523,1000000000,24.750579833984375,630.1006419338919,2.99792458E8,2,8.814048644365513,3.4028234663852886E38,,,,,0,,1
Raw,338066192,262938000000,,,-1164967988061876159,0.0,6.454270605556564,,,0,31,0.0,47,123450920857225,49,25.671730041503906,-428.65638490319066,0.24649199745404726,1,-37777.78371715091,0.004458645824342966,,,,,0,,1
Raw,338066192,262938000000,,,-1164967988061876159,0.0,6.454270605556564,,,0,32,0.0,47,123450921612048,23,32.08837127685547,629.521103843178,0.11625042474929653,1,121118.65271997858,0.0021299575455486774,,,,,0,,1
Raw,338066192,262938000000,,,-1164967988061876159,0.0,6.454270605556564,,,0,93,0.0,16,262010837516,1000000000,27.98843765258789,-657.7770962585009,2.99792458E8,2,-6.578749550921864,3.4028234663852886E38,,,,,0,,3
Raw,338066192,262938000000,,,-1164967988061876159,0.0,6.454270605556564,,,0,96,0.0,227,47833923880397,86,26.76523208618164,-699.7245567783411,0.21472410252090923,1,-53806.86446019798,0.003871436230838299,,,,,0,,3
Raw,338066193,262938000000,,,-1164967988061876159,0.0,6.454270605556564,,,0,98,0.0,227,47833925366224,55,30.59124755859375,-12.433738122530755,0.13873886331845298,1,-4274.956815696142,0.002490382408723235,,,,,0,,3
Raw,338066193,262938000000,,,-1164967988061876159,0.0,6.454270605556564,,,0,99,0.0,16,262001691803,1000000000,27.532424926757812,595.1749172717941,2.99792458E8,2,0.5855778172959252,3.4028234663852886E38,,,,,0,,3
Raw,338066194,262938000000,,,-1164967988061876159,0.0,6.454270605556564,,,0,101,0.0,227,47833935433723,126,23.454341888427734,-136.03528550197143,0.3161128870810763,4,-12045.710804912327,3.4028234663852886E38,,,,,0,,3
Raw,338066194,262938000000,,,-1164967988061876159,0.0,6.454270605556564,,,0,102,0.0,226,47833934169950,1000000000,20.096359252929688,391.94429644736283,2.99792458E8,4,31525.871861151794,3.4028234663852886E38,,,,,0,,3
Raw,338066195,262938000000,,,-1164967988061876159,0.0,6.454270605556564,,,0,103,0.0,227,47833924458685,64,22.081174850463867,890.2069074000674,4.200802025223579,4,83858.43073395481,3.4028234663852886E38,,,,,0,,3
Raw,338066195,262938000000,,,-1164967988061876159,0.0,6.454270605556564,,,0,104,0.0,227,47833931046989,38,33.86854934692383,-443.0474976752082,0.09645860245517496,1,-43684.97094520488,0.001807434600777924,,,,,0,,3
Raw,338066196,262938000000,,,-1164967988061876159,0.0,6.454270605556564,,,0,105,0.0,16,262007475843,1000000000,18.896623611450195,853.1969723566867,2.99792458E8,2,5.968639013990834,3.4028234663852886E38,,,,,0,,3
Raw,338066201,262938000000,,,-1164967988061876159,0.0,6.454270605556564,,,0,106,0.0,227,47833931685869,33,35.05462646484375,580.0629605443191,0.08451524764307444,1,75832.88778880487,0.0015756301581859589,,,,,0,,3
Fix,gps,60.143567,10.249055,177.936831,0.221681,2.000000,1480933034999
Raw,338067152,263938000000,,,-1164967988061875963,0.0,6.358309882588237,,,0,1,0.0,47,123451930885375,30,29.78740882873535,377.726049894829,0.15309053975931253,1,83195.09045498812,0.0027759969234466553,,,,,0,,1
Raw,338067152,263938000000,,,-1164967988061875963,0.0,6.358309882588237,,,0,3,0.0,47,123451931138820,40,27.44295310974121,-205.99302096683334,0.19996508414239889,1,-22403.934226338213,0.003636149689555168,,,,,0,,1
Raw,338067153,263938000000,,,-1164967988061875963,0.0,6.358309882588237,,,0,11,0.0,47,123451926049448,49,25.562789916992188,684.8854641977878,0.2468921334817008,1,59549.599299983114,0.004514919128268957,,,,,0,,1
Raw,338067153,263938000000,,,-1164967988061875963,0.0,6.358309882588237,,,0,12,0.0,47,123451917524949,30,29.678466796875,-320.1954086036294,0.15619232621390433,1,-30288.162822756793,0.002811034442856908,,,,,0,,1
Raw,338067153,263938000000,,,-1164967988061875963,0.0,6.358309882588237,,,0,14,0.0,47,123451926731347,22,32.34323501586914,310.5915176748058,0.11381814721420713,1,48300.465273899434,0.002193835098296404,,,,,0,,1
Raw,338067154,263938000000,,,-1164967988061875963,0.0,6.358309882588237,,,0,17,0.0,47,123451925203946,28,30.39729881286621,-179.79410929740118,0.14182066294185147,1,-17306.953388826438,0.002587763359770179,,,,,0,,1
Raw,338067154,263938000000,,,-1164967988061875963,0.0,6.358309882588237,,,0,19,0.0,47,123451923722603,35,28.432598114013672,-363.9921491319408,0.17731341423788893,1,-11299.322562729401,0.003244587918743491,,,,,0,,1
Raw,338067154,263938000000,,,-1164967988061875963,0.0,6.358309882588237,,,0,22,0.0,16,263011748312,1000000000,26.696245193481445,26.36115907355547,2.99792458E8,2,0.2893813553894764,3.4028234663852886E38,,,,,0,,1
Raw,338067155,263938000000,,,-1164967988061875963,0.0,6.358309882588237,,,0,23,0.0,17,19027370,44,26.544071197509766,-625.2380978617825,0.22296821273797585,4,-510.67677336653344,3.4028234663852886E38,,,,,0,,1
Raw,338067155,263938000000,,,-1164967988061875963,0.0,6.358309882588237,,,0,28,0.0,16,263014790422,1000000000,25.831470489501953,629.7307791157064,2.99792458E8,2,8.803950161470432,3.4028234663852886E38,,,,,0,,1
Raw,338067155,263938000000,,,-1164967988061875963,0.0,6.358309882588237,,,0,31,0.0,47,123451920858623,34,28.68663215637207,-428.5100348348817,0.17530431333643737,1,-38206.31792171967,0.0031510682310909033,,,,,0,,1
Raw,338067156,263938000000,,,-1164967988061875963,0.0,6.358309882588237,,,0,32,0.0,47,123451921609988,30,29.874013900756836,629.719872729619,0.1499227019033833,1,121748.22580994992,0.0027484556194394827,,,,,0,,1
Raw,338067159,263938000000,,,-1164967988061875963,0.0,6.358309882588237,,,0,93,0.0,16,263010839710,1000000000,28.274742126464844,-657.9592329061588,2.99792458E8,2,-6.570270379388819,3.4028234663852886E38,,,,,0,,3
Raw,338067159,263938000000,,,-1164967988061875963,0.0,6.358309882588237,,,0,96,0.0,227,47834923882720,70,28.581912994384766,-699.6609589144696,0.1743315986959304,1,-54506.6444266206,0.003140783868730068,,,,,0,,3
Raw,338067160,263938000000,,,-1164967988061875963,0.0,6.358309882588237,,,0,98,0.0,227,47834925366215,54,30.814802169799805,-12.177070597994835,0.13523811408483305,1,-4287.315770924277,0.002427103463560343,,,,,0,,3
Raw,338067160,263938000000,,,-1164967988061875963,0.0,6.358309882588237,,,0,99,0.0,16,263001689721,1000000000,26.71718406677246,595.0840534427043,2.99792458E8,2,0.6134375542289914,3.4028234663852886E38,,,,,0,,3
Raw,338067160,263938000000,,,-1164967988061875963,0.0,6.358309882588237,,,0,101,0.0,227,47834935434027,73,20.35311508178711,-135.83200921065526,4.202775878740795,4,-12180.78976323722,3.4028234663852886E38,,,,,0,,3
Raw,338067161,263938000000,,,-1164967988061875963,0.0,6.358309882588237,,,0,102,0.0,227,47834934168516,95,16.093875885009766,391.776440348988,4.202548484851182,4,31916.683985986143,3.4028234663852886E38,,,,,0,,3
Raw,338067161,263938000000,,,-1164967988061875963,0.0,6.358309882588237,,,0,103,0.0,16,263004455837,1000000000,16.462303161621094,891.9670617847314,2.99792458E8,2,3.5447576628503157,3.4028234663852886E38,,,,,0,,3
Raw,338067162,263938000000,,,-1164967988061875963,0.0,6.358309882588237,,,0,104,0.0,227,47834931048430,33,35.11250305175781,-442.83703850617985,0.0838532608282343,1,-44127.95168036581,0.0015662637306377292,,,,,0,,3
Raw,338067162,263938000000,,,-1164967988061875963,0.0,6.358309882588237,,,0,105,0.0,16,263007473096,1000000000,17.847841262817383,853.0155855230723,2.99792458E8,2,5.954015582586659,3.4028234663852886E38,,,,,0,,3
Raw,338067162,263938000000,,,-1164967988061875963,0.0,6.358309882588237,,,0,106,0.0,227,47834931683970,38,33.77348327636719,580.240598307716,0.09761284611704463,1,76412.98613506727,0.001826044637709856,,,,,0,,3
Nav,96,769,1,5,8,69,-76,115,74,-56,-128,-43,-104,88,57,-96
Nav,98,769,1,5,8,69,-76,117,74,-56,-128,-43,-104,88,57,-72
Nav,104,769,1,5,8,69,-76,115,74,-56,-128,-43,-104,88,57,-96
Nav,106,769,1,5,8,69,-76,115,74,-56,-128,-43,-104,88,57,-96
Fix,gps,60.143563,10.249059,177.938927,0.013073,2.000000,1480933035999
Raw,338068165,264938000000,,,-1164967988061875768,0.0,6.286027392262041,,,0,1,0.0,47,123452930884118,36,28.274171829223633,378.009956757664,0.18185310425251022,1,83572.98087730429,0.003304310841485858,,,,,0,,1
Raw,338068166,264938000000,,,-1164967988061875768,0.0,6.286027392262041,,,0,3,0.0,47,123452931139499,50,25.351146697998047,-205.67267995797545,0.2538705830220441,1,-22609.72636060032,0.004626282025128603,,,,,0,,1
Raw,338068166,264938000000,,,-1164967988061875768,0.0,6.286027392262041,,,0,11,0.0,47,123452926047175,62,23.5397891998291,684.8921443592662,0.3113571529011332,1,60234.55892371919,0.005699018016457558,,,,,0,,1
Raw,338068166,264938000000,,,-1164967988061875768,0.0,6.286027392262041,,,0,12,0.0,47,123452917526027,30,29.757177352905273,-319.90710510390295,0.1548119367992571,1,-30608.2089072031,0.0027856756933033466,,,,,0,,1
Raw,338068167,264938000000,,,-1164967988061875768,0.0,6.286027392262041,,,0,14,0.0,47,123452926730294,22,32.44169235229492,310.7827543383553,0.11254870884332824,1,48611.14552295415,0.0021691075526177883,,,,,0,,1
Raw,338068167,264938000000,,,-1164967988061875768,0.0,6.286027392262041,,,0,17,0.0,47,123452925204545,28,30.26171112060547,-179.59649921448192,0.14403722082719628,1,-17486.620666600014,0.00262847519479692,,,,,0,,1
Raw,338068174,264938000000,,,-1164967988061875768,0.0,6.286027392262041,,,0,19,0.0,47,123452923723766,32,29.18416404724121,-363.92023514867765,0.1626717207219205,1,-11663.26166387573,0.00297564547508955,,,,,0,,1
Raw,338068177,264938000000,,,-1164967988061875768,0.0,6.286027392262041,,,0,22,0.0,16,264011748225,1000000000,27.6555118560791,25.991304775984062,2.99792458E8,2,0.2851180034300203,3.4028234663852886E38,,,,,0,,1
Raw,338068178,264938000000,,,-1164967988061875768,0.0,6.286027392262041,,,0,23,0.0,17,19029484,40,27.387149810791016,-624.5965297001972,0.20266034410873912,4,-11.85036922625659,3.4028234663852886E38,,,,,0,,1
Raw,338068178,264938000000,,,-1164967988061875768,0.0,6.286027392262041,,,0,28,0.0,16,264014788323,1000000000,23.70030975341797,629.3609162975208,2.99792458E8,2,8.793857463530754,3.4028234663852886E38,,,,,0,,1
Raw,338068179,264938000000,,,-1164967988061875768,0.0,6.286027392262041,,,0,31,0.0,47,123452920860066,33,28.978837966918945,-428.2439190143516,0.16962931805619785,1,-38634.604320610044,0.0030468248296529055,,,,,0,,1
Raw,338068179,264938000000,,,-1164967988061875768,0.0,6.286027392262041,,,0,32,0.0,47,123452921607808,34,28.776369094848633,629.8928752789288,0.1700783477641561,1,122378.0303615386,0.00311868148855865,,,,,0,,1
Raw,338068179,264938000000,,,-1164967988061875768,0.0,6.286027392262041,,,0,93,0.0,17,10841709,71,28.413049697875977,-658.001358822421,0.17899197522163734,4,-533.0590525718453,3.4028234663852886E38,,,,,0,,3
Raw,338068180,264938000000,,,-1164967988061875768,0.0,6.286027392262041,,,0,96,0.0,227,47835923885096,81,27.25429916381836,-699.4608948946807,0.20300702659618208,1,-55206.209303732954,0.0036594741977751255,,,,,0,,3
Raw,338068180,264938000000,,,-1164967988061875768,0.0,6.286027392262041,,,0,98,0.0,227,47835925366296,49,31.542430877685547,-11.866657169675975,0.12444816252246627,1,-4299.344723467031,0.002232065424323082,,,,,0,,3
Raw,338068184,264938000000,,,-1164967988061875768,0.0,6.286027392262041,,,0,99,0.0,16,264001687833,1000000000,27.04212188720703,595.0840534427043,2.99792458E8,2,0.6041211699044251,3.4028234663852886E38,,,,,0,,3
Raw,338068184,264938000000,,,-1164967988061875768,0.0,6.286027392262041,,,0,101,0.0,227,47835935434449,81,18.738765716552734,-135.73503610123373,4.202776145009986,4,-12315.939893824236,3.4028234663852886E38,,,,,0,,3
Raw,338068185,264938000000,,,-1164967988061875768,0.0,6.286027392262041,,,0,102,0.0,16,264004167315,1000000000,14.209647178649902,393.1450895555745,2.99792458E8,2,1.5808588336622051,3.4028234663852886E38,,,,,0,,3
Raw,338068185,264938000000,,,-1164967988061875768,0.0,6.286027392262041,,,0,103,0.0,16,264004452864,1000000000,21.380130767822266,891.5115838357606,2.99792458E8,2,3.5848188266705723,3.4028234663852886E38,,,,,0,,3
Raw,338068185,264938000000,,,-1164967988061875768,0.0,6.286027392262041,,,0,104,0.0,227,47835931049916,33,35.01190948486328,-442.5881684086503,0.08480716188617338,1,-44570.64609709996,0.00158450857270509,,,,,0,,3
Raw,338068186,264938000000,,,-1164967988061875768,0.0,6.286027392262041,,,0,105,0.0,16,264007470153,1000000000,9.425050735473633,852.8324264017187,2.99792458E8,2,5.992791838030967,3.4028234663852886E38,,,,,0,,3
Raw,338068186,264938000000,,,-1164967988061875768,0.0,6.286027392262041,,,0,106,0.0,227,47835931682038,42,32.94540023803711,580.4587941943751,0.10716638500920123,1,76993.3385616674,0.0020087026059627533,,,,,0,,3
Fix,gps,60.143560,10.249061,177.941075,0.045648,2.000000,1480933036999
Raw,338069114,265938000000,,,-1164967988061875572,0.0,6.270661015748992,,,0,1,0.0,47,123453930882852,32,29.198068618774414,378.04322123523025,0.1637003518926602,1,83950.92828377371,0.0029708861839026213,,,,,0,,1
Raw,338069115,265938000000,,,-1164967988061875572,0.0,6.270661015748992,,,0,3,0.0,47,123453931140175,36,28.204978942871094,-205.7461276517821,0.18333793775755647,1,-22815.459782009275,0.0033307380508631468,,,,,0,,1
Raw,338069115,265938000000,,,-1164967988061875572,0.0,6.270661015748992,,,0,11,0.0,47,123453926044908,63,22.301631927490234,686.0889839025212,4.201087465796958,4,60919.552070968406,3.4028234663852886E38,,,,,0,,1
Raw,338069115,265938000000,,,-1164967988061875572,0.0,6.270661015748992,,,0,12,0.0,47,123453917527035,33,28.91233253479004,-319.9473564850564,0.1703047265024763,1,-30928.180071610168,0.0030702436342835426,,,,,0,,1
Raw,338069116,265938000000,,,-1164967988061875572,0.0,6.270661015748992,,,0,14,0.0,47,123453926729243,21,33.010093688964844,310.84246680218325,0.10549585370576153,1,48921.938351982455,0.002031706739217043,,,,,0,,1
Raw,338069116,265938000000,,,-1164967988061875572,0.0,6.270661015748992,,,0,17,0.0,47,123453925205141,26,31.096712112426758,-179.50614662223995,0.13092114160714768,1,-17666.18021211504,0.002387557877227664,,,,,0,,1
Raw,338069116,265938000000,,,-1164967988061875572,0.0,6.270661015748992,,,0,19,0.0,47,123453923725027,33,28.861133575439453,-363.7589228819552,0.16881027402288407,1,-12027.087047298188,0.0030883944127708673,,,,,0,,1
Raw,338069117,265938000000,,,-1164967988061875572,0.0,6.270661015748992,,,0,22,0.0,16,265011748138,1000000000,21.028175354003906,26.1762340549233,2.99792458E8,2,0.2877607316003278,3.4028234663852886E38,,,,,0,,1
Raw,338069117,265938000000,,,-1164967988061875572,0.0,6.270661015748992,,,0,23,0.0,17,19031565,36,28.13011360168457,-624.5853506544577,0.18632707570228357,1,-636.4898781524801,0.0033595706336200237,,,,,0,,1
Raw,338069118,265938000000,,,-1164967988061875572,0.0,6.270661015748992,,,0,28,0.0,16,265014786223,1000000000,26.18398666381836,629.3609162975208,2.99792458E8,2,8.808622528684635,3.4028234663852886E38,,,,,0,,1
Raw,338069118,265938000000,,,-1164967988061875572,0.0,6.270661015748992,,,0,31,0.0,47,123453920861492,45,26.258235931396484,-427.9680896937125,0.23064308934890831,1,-39062.833963103534,0.004167519975453615,,,,,0,,1
Raw,338069118,265938000000,,,-1164967988061875572,0.0,6.270661015748992,,,0,32,0.0,47,123453921605756,30,29.773351669311523,629.9088258685815,0.15166614936075595,1,123007.8921606381,0.002780493348836899,,,,,0,,1
Raw,338069119,265938000000,,,-1164967988061875572,0.0,6.270661015748992,,,0,93,0.0,17,20843909,90,26.415122985839844,-658.3881265390419,0.2265785567066695,4,-1191.2609819628535,3.4028234663852886E38,,,,,0,,3
Raw,338069119,265938000000,,,-1164967988061875572,0.0,6.270661015748992,,,0,96,0.0,227,47836923887371,80,27.41621971130371,-699.5951797733806,0.19927095364358716,1,-55905.75514653281,0.003591887652873993,,,,,0,,3
Raw,338069119,265938000000,,,-1164967988061875572,0.0,6.270661015748992,,,0,98,0.0,227,47836925366281,49,31.70340919494629,-11.802821793685517,0.12218070561696764,1,-4311.220596720904,0.002191078383475542,,,,,0,,3
Raw,338069120,265938000000,,,-1164967988061875572,0.0,6.270661015748992,,,0,99,0.0,16,265001685848,1000000000,27.581214904785156,595.2676215535362,2.99792458E8,2,0.5949882322394469,3.4028234663852886E38,,,,,0,,3
Raw,338069120,265938000000,,,-1164967988061875572,0.0,6.270661015748992,,,0,101,0.0,227,47836935434988,80,19.001220703125,-135.58734829650626,4.202776145009986,4,-12450.868718081667,3.4028234663852886E38,,,,,0,,3
Raw,338069120,265938000000,,,-1164967988061875572,0.0,6.270661015748992,,,0,102,0.0,16,265004166004,1000000000,21.831253051757812,393.23769158994696,2.99792458E8,2,1.5750747818886701,3.4028234663852886E38,,,,,0,,3
Raw,338069121,265938000000,,,-1164967988061875572,0.0,6.270661015748992,,,0,103,0.0,16,265004449792,1000000000,22.978309631347656,891.5115838357606,2.99792458E8,2,3.5708616988646837,3.4028234663852886E38,,,,,0,,3
Raw,338069121,265938000000,,,-1164967988061875572,0.0,6.270661015748992,,,0,104,0.0,227,47836931051425,34,34.850318908691406,-442.5577327749754,0.08636259833155069,1,-45013.243627666285,0.0016142623499035835,,,,,0,,3
Raw,338069122,265938000000,,,-1164967988061875572,0.0,6.270661015748992,,,0,105,0.0,16,265007467406,1000000000,20.081146240234375,852.8324264017187,2.99792458E8,2,5.979440254510647,3.4028234663852886E38,,,,,0,,3
Raw,338069122,265938000000,,,-1164967988061875572,0.0,6.270661015748992,,,0,106,0.0,227,47836931680143,39,33.674747467041016,580.4065117060691,0.09870406718963115,1,77573.75869121893,0.0018469204660505056,,,,,0,,3
Nav,96,769,1,5,9,76,12,-118,-60,-6,-76,-65,-83,23,-47,-8
Nav,98,769,1,5,9,76,12,-118,-60,-6,-76,-65,-83,23,-47,-8
Nav,104,769,1,5,9,76,12,-118,-60,-6,-76,-65,-83,23,-47,-8
Nav,106,769,1,5,9,76,12,-118,-60,-6,-76,-65,-83,23,-47,-8
Fix,gps,60.143564,10.249057,177.943209,0.031571,2.000000,1480933037999
Raw,338070131,266938000000,,,-1164967988061875378,0.0,7.277182535716978,,,0,1,0.0,47,123454930881588,32,29.29573631286621,377.93098770590063,0.16189161855787593,1,84328.91724044264,0.00293766800314188,,,,,0,,1
Raw,338070131,266938000000,,,-1164967988061875378,0.0,7.277182535716978,,,0,3,0.0,47,123454931140897,38,27.72494125366211,-205.8114296384798,0.1936418065897736,1,-23021.177036284167,0.003519998164847493,,,,,0,,1
Raw,338070131,266938000000,,,-1164967988061875378,0.0,7.277182535716978,,,0,11,0.0,47,123454926042633,78,19.309486389160156,686.3371723509204,4.2010869332585745,4,61605.19048148396,3.4028234663852886E38,,,,,0,,1
Raw,338070132,266938000000,,,-1164967988061875378,0.0,7.277182535716978,,,0,12,0.0,47,123454917528144,32,29.26173973083496,-320.0031153839277,0.1637143809506918,1,-31248.11799790228,0.00294918823055923,,,,,0,,1
Raw,338070132,266938000000,,,-1164967988061875378,0.0,7.277182535716978,,,0,14,0.0,47,123454926728206,22,32.302703857421875,310.6965938882656,0.11434426185312907,1,49232.74379778937,0.0022040961775928736,,,,,0,,1
Raw,338070132,266938000000,,,-1164967988061875378,0.0,7.277182535716978,,,0,17,0.0,47,123454925205739,26,31.100406646728516,-179.54324537616503,0.13086596563810404,1,-17845.702427489286,0.002386542269960046,,,,,0,,1
Raw,338070133,266938000000,,,-1164967988061875378,0.0,7.277182535716978,,,0,19,0.0,47,123454923726240,34,28.71074676513672,-363.8581369128931,0.17174702350416693,1,-12390.88040766415,0.00314233242534101,,,,,0,,1
Raw,338070133,266938000000,,,-1164967988061875378,0.0,7.277182535716978,,,0,22,0.0,16,266011748051,1000000000,24.033279418945312,26.1762340549233,2.99792458E8,2,0.2875560298274834,3.4028234663852886E38,,,,,0,,1
Raw,338070134,266938000000,,,-1164967988061875378,0.0,7.277182535716978,,,0,23,0.0,17,19033646,36,28.189468383789062,-624.7171815962879,0.18508186782783886,1,-1261.1904745826573,0.0033366912975907326,,,,,0,,1
Raw,338070134,266938000000,,,-1164967988061875378,0.0,7.277182535716978,,,0,28,0.0,16,266014784124,1000000000,25.164928436279297,629.3609162975208,2.99792458E8,2,8.803700840289796,3.4028234663852886E38,,,,,0,,1
Raw,338070134,266938000000,,,-1164967988061875378,0.0,7.277182535716978,,,0,31,0.0,47,123454920862980,46,26.138057708740234,-428.31150452563634,0.23380443689329267,1,-39491.075540037076,0.004225582350045443,,,,,0,,1
Raw,338070135,266938000000,,,-1164967988061875378,0.0,7.277182535716978,,,0,32,0.0,47,123454921603675,33,29.044078826904297,629.8698355383194,0.164924358082725,1,123637.75368947806,0.0030240260530263186,,,,,0,,1
Raw,338070135,266938000000,,,-1164967988061875378,0.0,7.277182535716978,,,0,93,0.0,17,20846157,114,24.318767547607422,-658.7177720585305,0.28740444180106817,4,-1849.4472223579285,3.4028234663852886E38,,,,,0,,3
Raw,338070135,266938000000,,,-1164967988061875378,0.0,7.277182535716978,,,0,96,0.0,227,47837923889729,86,26.782913208007812,-699.3842093675044,0.21429053306788737,4,-56605.32407126731,3.4028234663852886E38,,,,,0,,3
Raw,338070135,266938000000,,,-1164967988061875378,0.0,7.277182535716978,,,0,98,0.0,227,47837925366291,56,30.535959243774414,-11.839587178582732,0.1396186333692725,1,-4323.00072891657,0.0025062845088541508,,,,,0,,3
Raw,338070136,266938000000,,,-1164967988061875378,0.0,7.277182535716978,,,0,99,0.0,17,1683769,80,27.43447494506836,595.3113834277115,0.19845768432336586,4,0.5847840311973453,3.4028234663852886E38,,,,,0,,3
Raw,338070136,266938000000,,,-1164967988061875378,0.0,7.277182535716978,,,0,101,0.0,16,266005435629,1000000000,7.0,-134.8311693542488,2.99792458E8,2,-0.6730371043886407,3.4028234663852886E38,,,,,0,,3
Raw,338070136,266938000000,,,-1164967988061875378,0.0,7.277182535716978,,,0,102,0.0,16,266004164691,1000000000,18.070178985595703,393.41921475338745,2.99792458E8,2,1.569642632083504,3.4028234663852886E38,,,,,0,,3
Raw,338070137,266938000000,,,-1164967988061875378,0.0,7.277182535716978,,,0,103,0.0,16,266004446916,1000000000,23.75800132751465,891.5115838357606,2.99792458E8,2,3.5569045711495493,3.4028234663852886E38,,,,,0,,3
Raw,338070137,266938000000,,,-1164967988061875378,0.0,7.277182535716978,,,0,104,0.0,227,47837931052873,36,34.22611999511719,-442.55282490123614,0.09264954678134918,1,-45455.77655953151,0.0017345387022942305,,,,,0,,3
Raw,338070137,266938000000,,,-1164967988061875378,0.0,7.277182535716978,,,0,105,0.0,16,266007464562,1000000000,19.885845184326172,852.8324264017187,2.99792458E8,2,5.96608867102315,3.4028234663852886E38,,,,,0,,3
Raw,338070138,266938000000,,,-1164967988061875378,0.0,7.277182535716978,,,0,106,0.0,227,47837931678180,41,33.056941986083984,580.3239639963708,0.10582509556115571,1,78154.20464803459,0.0019830723758786917,,,,,0,,3
Fix,gps,60.143566,10.249053,177.945029,0.039463,2.000000,1480933038999
Raw,338071153,267938000000,,,-1164967988061875184,0.0,7.643642224100883,,,0,1,0.0,47,123455930880348,31,29.650062561035156,378.0591718248829,0.15549841205881076,1,84706.93194006485,0.0028202414978295565,,,,,0,,1
Raw,338071154,267938000000,,,-1164967988061875184,0.0,7.643642224100883,,,0,3,0.0,47,123455931141511,49,25.680156707763672,-205.30596976701827,0.2445089742915465,1,-23226.853616076274,0.004454323090612888,,,,,0,,1
Raw,338071154,267938000000,,,-1164967988061875184,0.0,7.643642224100883,,,0,11,0.0,47,123455926040280,80,18.968215942382812,686.1486282014362,4.201086400720191,4,62291.20106200903,3.4028234663852886E38,,,,,0,,1
Raw,338071155,267938000000,,,-1164967988061875184,0.0,7.643642224100883,,,0,12,0.0,47,123455917529253,35,28.54731559753418,-319.7748310901379,0.1774792666605971,1,-31568.010342246907,0.0032020173966884613,,,,,0,,1
Raw,338071155,267938000000,,,-1164967988061875184,0.0,7.643642224100883,,,0,14,0.0,47,123455926727178,22,32.35140609741211,310.94450967701255,0.11371150640297756,1,49543.59329688002,0.0021917722187936306,,,,,0,,1
Raw,338071156,267938000000,,,-1164967988061875184,0.0,7.643642224100883,,,0,17,0.0,47,123455925206327,24,31.75582504272461,-179.3783885339642,0.12142265387035117,1,-18025.194124737096,0.002213086001574993,,,,,0,,1
Raw,338071156,267938000000,,,-1164967988061875184,0.0,7.643642224100883,,,0,19,0.0,47,123455923727456,36,28.232053756713867,-363.6733077511699,0.18144018730366063,1,-12754.642540864596,0.003320371964946389,,,,,0,,1
Raw,338071157,267938000000,,,-1164967988061875184,0.0,7.643642224100883,,,0,22,0.0,16,267011747963,1000000000,25.70973014831543,26.36115907355547,2.99792458E8,2,0.2893813553890175,3.4028234663852886E38,,,,,0,,1
Raw,338071157,267938000000,,,-1164967988061875184,0.0,7.643642224100883,,,0,23,0.0,51,19035713,33,29.05946159362793,-624.6153432161977,0.16776859566175673,1,-1885.9391381328035,0.0030186749063432217,,,,,0,,1
Raw,338071165,267938000000,,,-1164967988061875184,0.0,7.643642224100883,,,0,28,0.0,16,267014782025,1000000000,26.943681716918945,629.3609162975208,2.99792458E8,2,8.798779151894955,3.4028234663852886E38,,,,,0,,1
Raw,338071166,267938000000,,,-1164967988061875184,0.0,7.643642224100883,,,0,31,0.0,47,123455920864406,38,27.819149017333984,-428.1460341992181,0.19332354833853227,1,-39919.290561683694,0.0034820258151739836,,,,,0,,1
Raw,338071166,267938000000,,,-1164967988061875184,0.0,7.643642224100883,,,0,32,0.0,47,123455921601516,34,28.694778442382812,630.0278418067592,0.1716796407568716,1,124267.59608149488,0.0031481150072067976,,,,,0,,1
Raw,338071166,267938000000,,,-1164967988061875184,0.0,7.643642224100883,,,0,93,0.0,17,20848375,120,23.929737091064453,-658.1012885849459,0.30039817864849594,4,-2507.647262662028,3.4028234663852886E38,,,,,0,,3
Raw,338071167,267938000000,,,-1164967988061875184,0.0,7.643642224100883,,,0,96,0.0,227,47838923892088,80,27.386003494262695,-699.4347195680712,0.1999637860800899,1,-57304.94708035322,0.0036044050939381123,,,,,0,,3
Raw,338071167,267938000000,,,-1164967988061875184,0.0,7.643642224100883,,,0,98,0.0,227,47838925366409,60,29.884403228759766,-11.53920251309571,0.15041952693123095,1,-4334.687055819594,0.0027015204541385174,,,,,0,,3
Raw,338071168,267938000000,,,-1164967988061875184,0.0,7.643642224100883,,,0,99,0.0,17,1681685,86,26.76447105407715,595.4824091945429,0.21434738154029065,1,595.9970561687524,0.0038676958065479994,,,,,0,,3
Raw,338071168,267938000000,,,-1164967988061875184,0.0,7.643642224100883,,,0,101,0.0,16,267005436078,1000000000,16.55545425415039,-134.74035664884377,2.99792458E8,2,-0.6704743944800463,3.4028234663852886E38,,,,,0,,3
Raw,338071168,267938000000,,,-1164967988061875184,0.0,7.643642224100883,,,0,102,0.0,16,267004163379,1000000000,14.846049308776855,393.60077199928446,2.99792458E8,2,1.564205041216817,3.4028234663852886E38,,,,,0,,3
Raw,338071169,267938000000,,,-1164967988061875184,0.0,7.643642224100883,,,0,103,0.0,16,267004443942,1000000000,24.207744598388672,891.6023113350243,2.99792458E8,2,3.54330812893123,3.4028234663852886E38,,,,,0,,3
Raw,338071169,267938000000,,,-1164967988061875184,0.0,7.643642224100883,,,0,104,0.0,227,47838931054357,37,34.069332122802734,-442.39120589240497,0.09430118961401085,1,-45898.26257119209,0.001766132889315486,,,,,0,,3
Raw,338071169,267938000000,,,-1164967988061875184,0.0,7.643642224100883,,,0,105,0.0,16,267007461717,1000000000,15.747468948364258,852.8324264017187,2.99792458E8,2,5.95273708746857,3.4028234663852886E38,,,,,0,,3
Raw,338071169,267938000000,,,-1164967988061875184,0.0,7.643642224100883,,,0,106,0.0,227,47838931676184,41,33.11560821533203,580.5525209498128,0.10512653833703389,1,78734.65015207927,0.001969723030924797,,,,,0,,3
Nav,1,257,1,-1,1,34,-61,-122,52,10,12,9,92,56,100,0,23,3,-42,78,-14,7,-90,-100,-37,49,-88,92,95,38,-54,2,-30,20,-57,-23,8,0,0,2,-32,1,101,-29,-25
Nav,3,257,1,-1,1,34,-61,-122,52,10,12,9,92,56,100,64,25,1,-42,78,-12,7,-90,-100,-14,49,-88,92,118,38,-54,1,32,11,71,-23,48,0,63,-4,-69,60,-83,51,-20
Nav,12,257,1,-1,1,34,-61,-122,52,10,12,9,92,56,100,0,23,3,-42,78,-14,7,-90,-100,-37,49,-88,92,95,38,-54,57,87,8,71,-24,-43,0,63,-1,-36,12,-61,19,79
Nav,14,257,1,-1,1,34,-61,-122,52,10,12,9,92,56,100,0,23,3,-42,78,-14,7,-90,-100,-37,49,-88,92,95,38,-54,59,18,19,-57,-23,12,0,63,-4,77,62,108,56,-108
Nav,17,257,1,-1,1,34,-61,-122,52,10,12,9,92,56,100,0,23,3,-42,78,-14,7,-90,-100,-37,49,-88,92,95,38,-54,58,74,3,71,-24,-33,0,0,2,22,57,-123,-119,-36
Nav,19,257,1,-1,1,34,-61,-122,52,10,12,9,92,56,100,0,23,3,-42,78,-14,7,-90,-100,-37,49,-88,92,95,38,-54,56,15,26,71,-23,51,0,0,1,-3,47,0,-48,76
Nav,32,257,1,-1,1,34,-61,-122,52,10,12,9,92,56,100,0,23,3,-42,78,-14,7,-90,-100,-37,49,-88,92,95,38,-54,0,81,8,71,-23,1,0,63,-36,-76,56,-118,107,31
Nav,98,769,1,5,10,85,-68,13,106,-33,80,-44,16,8,98,-72
Nav,99,769,1,-1,10,85,-68,11,106,-33,80,-44,16,8,98,-96
Nav,104,769,1,5,10,85,-68,11,106,-33,80,-44,16,8,98,-96
Nav,106,769,1,5,10,85,-68,11,106,-33,80,-44,16,8,98,-96

